,access_code,access_days_time,access_detail_code,cards_accepted,date_last_confirmed,expected_date,fuel_type_code,groups_with_access_code,id,open_date,owner_type_code,status_code,station_name,station_phone,updated_at,facility_type,geocode_status,latitude,longitude,city,intersection_directions,plus4,state,street_address,zip,country,bd_blends,cng_dispenser_num,cng_fill_type_code,cng_psi,cng_renewable_source,cng_total_compression,cng_total_storage,cng_vehicle_class,e85_blender_pump,e85_other_ethanol_blends,ev_connector_types,ev_dc_fast_num,ev_level1_evse_num,ev_level2_evse_num,ev_network,ev_network_web,ev_other_evse,ev_pricing,ev_renewable_source,hy_is_retail,hy_pressures,hy_standards,hy_status_link,lng_renewable_source,lng_vehicle_class,lpg_primary,lpg_nozzle_types,ng_fill_type_code,ng_psi,ng_vehicle_class,access_days_time_fr,intersection_directions_fr,bd_blends_fr,groups_with_access_code_fr,ev_pricing_fr,ev_network_ids,federal_agency
0,public,24 hours daily,,,2021-06-07,,ELEC,Public,33378,2008-10-15,P,E,Oregon Museum of Science and Industry (OMSI) - South Parking Lot,800-955-6674,2021-06-07T17:37:37Z,MUSEUM,GPS,45.508396,-122.664667,Portland,Under solar canopy in east parking lot,,OR,1945 SE Water Ave,97214,US,,,,,,,,,,,"['J1772', 'NEMA515']",,2.0,2.0,Non-Networked,,,Free,SOLAR,,,,,,,,,,,,,,,Public,,,
1,public,24 hours daily,,,2021-06-07,,ELEC,Public,34849,2009-10-15,SG,E,City of Keizer - City Hall,503-390-3700,2021-06-07T17:37:37Z,PARKING_LOT,200-9,44.99574,-123.019758,Salem,,,OR,930 Chemawa Rd NE,97303,US,,,,,,,,,,,['NEMA520'],,2.0,,Non-Networked,,,Free,,,,,,,,,,,,,,,,Public,,,
2,private,Employee use only,,,2021-04-08,,ELEC,Private,34859,2017-02-21,P,E,Nike - LA Garage,,2021-04-08T20:32:57Z,OFFICE_BLDG,GPS,45.508795,-122.8249,Beaverton,,,OR,1 Bowerman Dr,97006,US,,,,,,,,,,,['J1772'],,,6.0,Non-Networked,,,,WIND,,,,,,,,,,,,,,,Privé,,,
3,public,24 hours daily,,,2021-06-22,,ELEC,Public,35258,,,E,LINCOLN CITY TAFT DUAL 1,888-758-4389,2021-06-22T00:42:47Z,,GPS,44.928439,-124.015824,Lincoln City,,,OR,1226 SW 50th St,97367,US,,,,,,,,,,,['J1772'],,,2.0,ChargePoint Network,http://www.chargepoint.com/,,,,,,,,,,,,,,,,,,Public,,"{'station': ['USCPIL226108'], 'posts': ['307676', '307678']}",
4,public,24 hours daily,,,2021-06-22,,ELEC,Public,35480,,,E,LBCC  LBCC DUAL 2,888-758-4389,2021-06-22T00:42:47Z,,GPS,44.586123,-123.115389,Albany,,,OR,Ellingson Rd SW,97321,US,,,,,,,,,,,['J1772'],,,2.0,ChargePoint Network,http://www.chargepoint.com/,,,,,,,,,,,,,,,,,,Public,,"{'station': ['USCPIL214315'], 'posts': ['291203', '291205']}",
5,public,24 hours daily,,,2021-06-22,,ELEC,Public,35481,,,E,LINCOLN CITY NE15TH PARKING1,888-758-4389,2021-06-22T00:42:47Z,,GPS,44.97604,-124.011459,Lincoln City,,,OR,1601 NE 15th St,97367,US,,,,,,,,,,,"['J1772', 'NEMA515']",,1.0,1.0,ChargePoint Network,http://www.chargepoint.com/,,,,,,,,,,,,,,,,,,Public,,"{'station': ['USCPIL777'], 'posts': ['249075', '249077']}",
6,private,Employee use only,,,2021-01-14,,ELEC,Private,35557,2009-11-01,P,E,Oregon Electric Group,,2021-05-20T22:28:33Z,UTILITY,200-9,45.510465,-122.663354,Portland,,,OR,1709 SE 3rd Ave,97214,US,,,,,,,,,,,"['J1772', 'NEMA520']",,3.0,1.0,Non-Networked,,,,,,,,,,,,,,,,,,,Privé,,,
7,public,"Employee, student, and visitor use only",,,2021-06-07,,ELEC,Public,36371,2010-09-05,LG,E,Lane Community College,541-463-3000,2021-06-07T17:37:37Z,COLLEGE_CAMPUS,200-9,44.009797,-123.033213,Eugene,Under solar canopy; Lot B,,OR,4000 E 30th Ave,97405,US,,,,,,,,,,,"['J1772', 'NEMA520']",,10.0,10.0,Non-Networked,,,Free,SOLAR,,,,,,,,,,,,,,,Public,,,
8,public,24 hours daily,,,2021-06-22,,ELEC,Public,37170,,,E,HILLSBORO OR MAIN ST 1,888-758-4389,2021-06-22T00:42:47Z,,GPS,45.522609,-122.988535,Hillsboro,,,OR,150 E Main St,97123,US,,,,,,,,,,,['J1772'],,,2.0,ChargePoint Network,http://www.chargepoint.com/,,,,,,,,,,,,,,,,,,Public,,"{'station': ['USCPIL214301'], 'posts': ['291177', '291179']}",
9,public,24 hours daily,,,2021-06-22,,ELEC,Public,37171,,,E,HILLSBORO OR EV-8,888-758-4389,2021-06-22T00:42:47Z,,GPS,45.520533,-122.978089,Hillsboro,,,OR,253 SE 8th Ave,97123,US,,,,,,,,,,,['J1772'],,,2.0,ChargePoint Network,http://www.chargepoint.com/,,,,,,,,,,,,,,,,,,Public,,"{'station': ['USCPIL5444241'], 'posts': ['9051251', '9051261']}",
10,public,24 hours daily,,,2021-06-07,,ELEC,Public,37651,2008-10-15,P,E,Oregon Museum of Science and Industry (OMSI) - North Parking Lot,800-955-6674,2021-06-07T17:37:37Z,MUSEUM,GPS,45.509326,-122.666392,Portland,Near building in north parking lot,,OR,1945 SE Water Ave,97214,US,,,,,,,,,,,['J1772'],,,1.0,Non-Networked,,,Free,,,,,,,,,,,,,,,,Public,,,
11,public,Dealership business hours,CALL,,2020-06-09,,ELEC,Public - Call ahead,39827,2011-03-15,P,E,Carr Nissan,503-643-8676,2021-03-11T23:22:17Z,CAR_DEALER,200-9,45.491783,-122.81107,Beaverton,,,OR,3855 SW Cedar Hills Blvd,97005,US,,,,,,,,,,,['J1772'],,,1.0,Non-Networked,,,Free,,,,,,,,,,,,,,,,Public - Appeler à l'avance,,,
12,public,Dealership business hours,CALL,,2020-09-03,,ELEC,Public - Call ahead,39828,2011-03-15,P,E,Lithia Nissan of Bend,541-389-1177,2021-03-11T23:22:17Z,CAR_DEALER,GPS,44.055213,-121.277279,Bend,,,OR,1835 NE Highway 20,97701,US,,,,,,,,,,,"['CHADEMO', 'J1772']",1.0,,2.0,Non-Networked,,,Free,,,,,,,,,,,,,,,,Public - Appeler à l'avance,,,
13,public,Dealership business hours,CALL,,2020-06-09,,ELEC,Public - Call ahead,39830,2011-11-10,P,E,Kiefer Nissan,541-753-1694,2021-03-11T23:22:17Z,CAR_DEALER,GPS,44.572608,-123.258425,Corvallis,,,OR,900 NW 4th St,97330,US,,,,,,,,,,,['J1772'],,,1.0,Non-Networked,,,Free,,,,,,,,,,,,,,,,Public - Appeler à l'avance,,,
14,public,Dealership business hours,CALL,,2020-06-09,,ELEC,Public - Call ahead,39831,2011-03-15,P,E,Lithia Nissan of Eugene,541-686-2211,2021-03-11T23:22:17Z,CAR_DEALER,GPS,44.05902085037804,-123.0813974632293,Eugene,,,OR,2060 Martin Luther King,97401,US,,,,,,,,,,,['J1772'],,,1.0,Non-Networked,,,Free,,,,,,,,,,,,,,,,Public - Appeler à l'avance,,,
15,public,Dealership business hours,CALL,,2020-06-09,,ELEC,Public - Call ahead,39832,2011-03-15,P,E,Dick Hannah Nissan,503-655-6519,2021-03-11T23:22:17Z,CAR_DEALER,200-9,45.378967,-122.603899,Gladstone,,,OR,19505 SE McLoughlin Blvd,97027,US,,,,,,,,,,,['J1772'],,,1.0,Non-Networked,,,Free,,,,,,,,,,,,,,,,Public - Appeler à l'avance,,,
16,public,Dealership business hours,CALL,,2020-06-09,,ELEC,Public - Call ahead,39836,2011-03-15,P,E,Chuck Colvin Nissan,503-472-6124,2021-03-11T23:22:17Z,CAR_DEALER,200-9,45.227394,-123.180863,McMinnville,,,OR,1925 N Highway 99W,97128,US,,,,,,,,,,,['J1772'],,,1.0,Non-Networked,,,Free,,,,,,,,,,,,,,,,Public - Appeler à l'avance,,,
17,public,Dealership business hours,CALL,,2020-06-09,,ELEC,Public - Call ahead,39837,2011-03-15,P,E,Lithia Nissan,541-930-3025,2021-03-11T23:22:17Z,CAR_DEALER,200-9,42.379969,-122.858192,Medford,,,OR,4560 Grumman Dr,97504,US,,,,,,,,,,,['J1772'],,,1.0,Non-Networked,,,Free,,,,,,,,,,,,,,,,Public - Appeler à l'avance,,,
18,public,Dealership business hours,CALL,,2020-06-09,,ELEC,Public - Call ahead,39838,2011-03-15,P,E,Rustom Nissan - Portland,503-251-3349,2021-03-11T23:22:17Z,CAR_DEALER,200-9,45.531759,-122.537403,Portland,,,OR,1212 NE 122nd Ave,97230,US,,,,,,,,,,,['J1772'],,,1.0,Non-Networked,,,Free,,,,,,,,,,,,,,,,Public - Appeler à l'avance,,,
19,public,Dealership business hours,CALL,,2020-06-09,,ELEC,Public - Call ahead,39839,2011-03-15,P,E,Power Nissan - Salem,503-581-3849,2021-03-11T23:22:17Z,CAR_DEALER,200-9,44.921582,-123.006236,Salem,,,OR,2755 Mission St SE,97302,US,,,,,,,,,,,['J1772'],,,1.0,Non-Networked,,,Free,,,,,,,,,,,,,,,,Public - Appeler à l'avance,,,
20,public,Dealership business hours,CALL,,2020-06-09,,ELEC,Public - Call ahead,39840,2011-03-15,P,E,Ray Schultens Nissan,541-296-4613,2021-03-11T23:22:17Z,CAR_DEALER,GPS,45.613979,-121.20996,The Dalles,,,OR,2400 W 6th St,97058,US,,,,,,,,,,,"['CHADEMO', 'J1772']",1.0,,2.0,Non-Networked,,,Free,,,,,,,,,,,,,,,,Public - Appeler à l'avance,,,
21,public,Dealership business hours,CALL,,2020-06-09,,ELEC,Public - Call ahead,39841,2011-03-15,P,E,Tonkin Nissan,503-222-2277,2021-03-11T23:22:17Z,CAR_DEALER,200-9,45.326814,-122.770853,Wilsonville,,,OR,26700 SW 95th Ave,97070,US,,,,,,,,,,,['J1772'],,,2.0,Non-Networked,,,Free,,,,,,,,,,,,,,,,Public - Appeler à l'avance,,,
22,public,24 hours daily; parking permit required,,,2020-05-06,,ELEC,Public,40752,2011-08-01,SG,E,Southern Oregon University - Lot 8,541-552-7275,2021-03-11T23:22:17Z,COLLEGE_CAMPUS,200-8,42.187149,-122.689496,Ashland,,,OR,401 Stadium St,97520,US,,,,,,,,,,,"['J1772', 'NEMA520']",,2.0,3.0,Non-Networked,,,Free,,,,,,,,,,,,,,,,Public,,,
23,private,Employee and customer use only,,,2021-06-07,,ELEC,Private,40765,2011-03-15,P,E,Mentor Graphics,,2021-06-07T17:37:37Z,OFFICE_BLDG,200-8,45.317487,-122.759692,Wilsonville,,,OR,8005 SW Boeckman Rd,97070,US,,,,,,,,,,,"['J1772', 'NEMA515']",,1.0,1.0,Non-Networked,,,,,,,,,,,,,,,,,,,Privé,,,
24,public,8am-5pm daily; Employee and customer use only,CALL,,2021-06-07,,ELEC,Public - Call ahead,40775,2012-03-31,P,E,Atmosera,503-646-8400,2021-06-07T17:37:37Z,OFFICE_BLDG,GPS,45.475743,-122.776517,Beaverton,,,OR,9705 SW Sunshine Ct,97005,US,,,,,,,,,,,"['J1772', 'NEMA515']",,1.0,2.0,Non-Networked,,,Free,,,,,,,,,,,,,,,,Public - Appeler à l'avance,,,
25,public,8am-5pm daily,,,2021-01-14,,ELEC,Public,40777,2011-03-01,P,E,Clackamas County Sheriff's Office - Brooks Building,503-785-5000,2021-05-20T15:59:24Z,MUNI_GOV,GPS,45.43039546782978,-122.5722026653595,Clackamas,,,OR,9101 SE Sunnybrook Blvd,97015,US,,,,,,,,,,,"['J1772', 'NEMA515']",,1.0,1.0,Non-Networked,,,Free,,,,,,,,,,,,,,,,Public,,,
26,public,24 hours daily,,,2021-06-22,,ELEC,Public,40904,,,E,SHERWOOD CANNERY #1,888-758-4389,2021-06-22T00:42:47Z,,GPS,45.355354,-122.840126,Sherwood,,,OR,NW Washington St,97140,US,,,,,,,,,,,"['J1772', 'NEMA515']",,1.0,1.0,ChargePoint Network,http://www.chargepoint.com/,,,,,,,,,,,,,,,,,,Public,,"{'station': ['USCPIL5334'], 'posts': ['61237', '61239']}",
27,public,24 hours daily,,,2021-06-22,,ELEC,Public,40905,,,E,SHERWOOD CANNERY #2,888-758-4389,2021-06-22T00:42:47Z,,GPS,45.356319,-122.838837,Sherwood,,,OR,15665 SW Willamette St,97140,US,,,,,,,,,,,"['J1772', 'NEMA515']",,1.0,1.0,ChargePoint Network,http://www.chargepoint.com/,,,,,,,,,,,,,,,,,,Public,,"{'station': ['USCPIL5318'], 'posts': ['61181', '61183']}",
28,public,Dealership business hours,CALL,,2021-06-07,,ELEC,Public - Call ahead,41085,2011-09-15,P,E,TC Chevrolet,541-201-8697,2021-06-07T17:37:37Z,CAR_DEALER,GPS,42.219548,-122.740005,Ashland,Located off of Exit 19 on Highway 99 on the north end of Ashland. Charger located outside of service bay.,,OR,2045 Highway 99 N,97520,US,,,,,,,,,,,['J1772'],,,3.0,Non-Networked,,,Free,,,,,,,,,,,,,,,,Public - Appeler à l'avance,,,
29,public,24 hours daily,,,2021-06-22,,ELEC,Public,41758,,,E,HIGHLANDCHEVRON HIGHLAND DUAL 1,888-758-4389,2021-06-22T00:42:47Z,,GPS,45.475962,-122.825561,Beaverton,,,OR,14470 SW Allen Blvd,97005,US,,,,,,,,,,,['J1772'],,,2.0,ChargePoint Network,http://www.chargepoint.com/,,,,,,,,,,,,,,,,,,Public,,"{'station': ['USCPIL424361'], 'posts': ['577571', '577581']}",
30,private,,,,2020-06-09,,ELEC,Private,44225,2011-03-15,P,E,Carr Nissan,503-643-8676,2021-03-11T23:22:17Z,CAR_DEALER,200-9,45.491783,-122.81107,Beaverton,,,OR,3855 SW Cedar Hills Blvd,97005,US,,,,,,,,,,,['J1772'],,,1.0,Non-Networked,,,,,,,,,,,,,,,,,,,Privé,,,
31,private,,,,2020-06-09,,ELEC,Private,44228,2011-11-10,P,E,Kiefer Nissan,541-753-1694,2021-03-11T23:22:17Z,CAR_DEALER,GPS,44.572608,-123.258425,Corvallis,,,OR,900 NW 4th St,97330,US,,,,,,,,,,,['J1772'],,,1.0,Non-Networked,,,,,,,,,,,,,,,,,,,Privé,,,
32,private,,,,2020-06-09,,ELEC,Private,44230,2011-03-15,P,E,Lithia Nissan of Eugene,541-686-2211,2021-03-11T23:22:17Z,CAR_DEALER,GPS,44.05902085037804,-123.0813974632293,Eugene,,,OR,2060 Martin Luther King,97401,US,,,,,,,,,,,['J1772'],,,1.0,Non-Networked,,,,,,,,,,,,,,,,,,,Privé,,,
33,private,,,,2020-06-09,,ELEC,Private,44233,2011-03-15,P,E,Dick Hannah Nissan,503-655-6519,2021-03-11T23:22:17Z,CAR_DEALER,200-9,45.378967,-122.603899,Gladstone,,,OR,19505 SE McLoughlin Blvd,97027,US,,,,,,,,,,,['J1772'],,,1.0,Non-Networked,,,,,,,,,,,,,,,,,,,Privé,,,
34,private,,,,2020-06-09,,ELEC,Private,44241,2011-03-15,P,E,Chuck Colvin Nissan,503-472-6124,2021-03-11T23:22:17Z,CAR_DEALER,200-9,45.227394,-123.180863,McMinnville,,,OR,1925 N Highway 99W,97128,US,,,,,,,,,,,['J1772'],,,1.0,Non-Networked,,,,,,,,,,,,,,,,,,,Privé,,,
35,private,,,,2020-06-09,,ELEC,Private,44243,2011-03-15,P,E,Lithia Nissan,541-930-3025,2021-03-11T23:22:17Z,CAR_DEALER,200-9,42.379969,-122.858192,Medford,,,OR,4560 Grumman Dr,97504,US,,,,,,,,,,,['J1772'],,,1.0,Non-Networked,,,,,,,,,,,,,,,,,,,Privé,,,
36,private,,,,2020-06-09,,ELEC,Private,44247,2011-03-15,P,E,Rustom Nissan - Portland,503-251-3349,2021-03-11T23:22:17Z,CAR_DEALER,200-9,45.531759,-122.537403,Portland,,,OR,1212 NE 122nd Ave,97230,US,,,,,,,,,,,['J1772'],,,1.0,Non-Networked,,,,,,,,,,,,,,,,,,,Privé,,,
37,private,,,,2020-06-09,,ELEC,Private,44251,2011-03-15,P,E,Power Nissan - Salem,503-581-3849,2021-03-11T23:22:17Z,CAR_DEALER,200-9,44.921582,-123.006236,Salem,,,OR,2755 Mission St SE,97302,US,,,,,,,,,,,['J1772'],,,1.0,Non-Networked,,,,,,,,,,,,,,,,,,,Privé,,,
38,private,,,,2020-06-09,,ELEC,Private,44255,2011-03-15,P,E,Tonkin Nissan,503-222-2277,2021-03-11T23:22:17Z,CAR_DEALER,200-9,45.326814,-122.770853,Wilsonville,,,OR,26700 SW 95th Ave,97070,US,,,,,,,,,,,['J1772'],,,3.0,Non-Networked,,,,,,,,,,,,,,,,,,,Privé,,,
39,public,24 hours daily,,,2021-06-07,,ELEC,Public,47064,2009-10-15,P,E,West Hills Collision Center,503-245-9030,2021-06-07T17:37:37Z,CAR_DEALER,200-9,45.464636,-122.698892,Portland,,,OR,8300 SW Barbur Blvd,97219,US,,,,,,,,,,,"['J1772', 'NEMA520']",,1.0,1.0,Non-Networked,,,Free,,,,,,,,,,,,,,,,Public,,,
40,public,,,,2021-06-22,,ELEC,Public,50714,2012-12-26,,E,Fox Tower Parking Lot,855-885-9571,2021-06-22T01:48:04Z,,GPS,45.518289,-122.680882,Portland,,,OR,805 SW Broadway,97205,US,,,,,,,,,,,['J1772'],,,2.0,OpConnect,http://www.opconnect.com/,,,,,,,,,,,,,,,,,,Public,,"{'station': ['25'], 'posts': ['454_1', '515_1']}",
41,public,,,,2021-06-22,,ELEC,Public,50716,2012-08-24,,E,Bridgeport Village Parking Lot,855-885-9571,2021-06-22T01:48:04Z,,GPS,45.39645,-122.75364,Tigard,,,OR,7455 SW Bridgeport Rd,97224,US,,,,,,,,,,,['J1772'],,4.0,4.0,OpConnect,http://www.opconnect.com/,,,,,,,,,,,,,,,,,,Public,,"{'station': ['16'], 'posts': ['17_1', '17_2', '17_3', '17_4', '7_1', '7_2', '7_3', '7_4']}",
42,public,24 hours daily,,,2021-06-07,,ELEC,Public,51699,2013-03-01,P,E,Hilltop Collision Center,503-722-5885,2021-06-07T17:37:37Z,CAR_DEALER,200-9,45.333825,-122.596795,Oregon City,,,OR,275 Beavercreek Rd,97045,US,,,,,,,,,,,['J1772'],,,1.0,Non-Networked,,,Free,,,,,,,,,,,,,,,,Public,,,
43,private,USNF Employees only,,,2021-04-08,,ELEC,Private,52473,2013-06-30,FG,E,Deschutes National Forest Supervisor’s Office,,2021-04-08T20:32:57Z,NATL_PARK,GPS,44.091791,-121.261635,Bend,,,OR,63095 Deschutes Market Rd,97701,US,,,,,,,,,,,['J1772'],,,3.0,Non-Networked,,,,,,,,,,,,,,,,,,,Privé,,,"{'id': 4, 'code': 'USDA', 'name': 'U.S. Department of Agriculture'}"
44,private,USDA fleet use only,,,2021-02-22,,ELEC,Private,52474,2013-06-30,FG,E,Forest Service - Umpqua National Forest,,2021-03-04T18:40:37Z,NATL_PARK,200-9,43.236194,-122.940719,Glide,,,OR,2010 Opportunity Ln,97443,US,,,,,,,,,,,,,,,,,,,,,,,,,,,,,,,,,,Privé,,,"{'id': 4, 'code': 'USDA', 'name': 'U.S. Department of Agriculture'}"
45,public,24 hours daily,,,2021-06-22,,ELEC,Public,53039,,,E,TOFURKY COMPANY TOFURKY HQ,888-758-4389,2021-06-22T00:42:47Z,,GPS,45.713918,-121.516681,Hood River,,,OR,602 Anchor Way,97031,US,,,,,,,,,,,"['J1772', 'NEMA515']",,1.0,1.0,ChargePoint Network,http://www.chargepoint.com/,,,,,,,,,,,,,,,,,,Public,,"{'station': ['USCPIL6076'], 'posts': ['62943', '62945']}",
46,public,10am-6pm daily,,,2021-06-07,,ELEC,Public,53694,2013-11-20,P,E,Ocean Beaches Glassblowing & Gallery,541-563-8632,2021-06-07T17:37:37Z,PARKING_LOT,200-9,44.504993,-124.079315,Seal Rock,,,OR,11175 NW Pacific Coast Hwy,97376,US,,,,,,,,,,,['J1772'],,,1.0,Non-Networked,,,Free,,,,,,,,,,,,,,,,Public,,,
47,public,24 hours daily; see valet for access,,,2020-12-03,,ELEC,Public,53982,2013-11-01,P,E,The Mill Casino,800-953-4800,2021-05-21T07:17:13Z,HOTEL,200-9,43.393471,-124.21869,North Bend,Located in the valet,,OR,3201 Tremont Ave,97459,US,,,,,,,,,,,['J1772'],,,1.0,Non-Networked,,,$12 per session,,,,,,,,,,,,,,,,Public,,,
48,public,24 hours daily,,,2021-06-22,,ELEC,Public,56771,,,E,MATISSE         MATISSE 1,888-758-4389,2021-06-22T00:42:47Z,,GPS,45.494251,-122.671806,Portland,,,OR,0677 SW Lowell St,97239,US,,,,,,,,,,,"['J1772', 'NEMA515']",,1.0,1.0,ChargePoint Network,http://www.chargepoint.com/,,,,,,,,,,,,,,,,,,Public,,"{'station': ['USCPIL2535'], 'posts': ['53651', '53653']}",
49,public,24 hours daily,,,2021-06-22,,ELEC,Public,57011,,,E,SHERWOOD        CANNERY #3,888-758-4389,2021-06-22T00:42:47Z,,GPS,45.356464,-122.838989,Sherwood,,,OR,15601 SW Willamette St,97140,US,,,,,,,,,,,"['J1772', 'NEMA515']",,1.0,1.0,ChargePoint Network,http://www.chargepoint.com/,,,,,,,,,,,,,,,,,,Public,,"{'station': ['USCPIL5012'], 'posts': ['60231', '60233']}",
50,public,24 hours daily,,,2021-06-22,,ELEC,Public,58336,,,E,FORD_BLDG FORD CHARGER #1,888-758-4389,2021-06-22T00:42:47Z,,GPS,43.366504,-124.214993,Coos Bay,,,OR,245 S 2nd St,97420,US,,,,,,,,,,,['J1772'],,,1.0,ChargePoint Network,http://www.chargepoint.com/,,,,,,,,,,,,,,,,,,Public,,"{'station': ['USCPIL95441'], 'posts': ['9030281']}",
51,public,24 hours daily,,,2021-06-22,,ELEC,Public,60919,,,E,US BANCORP 5TH AVE GARAGE1,888-758-4389,2021-06-22T00:42:47Z,,GPS,45.522185,-122.675939,Portland,,,OR,111 SW 5th Ave,97204,US,,,,,,,,,,,['J1772'],,,2.0,ChargePoint Network,http://www.chargepoint.com/,,,,,,,,,,,,,,,,,,Public,,"{'station': ['USCPIL96447'], 'posts': ['110221', '110223']}",
52,public,24 hours daily,,,2021-06-22,,ELEC,Public,60943,,,E,US BANCORP 4TH AVE GARAGE1,888-758-4389,2021-06-22T00:42:47Z,,GPS,45.522198,-122.674722,Portland,,,OR,125 SW 4th Ave,97204,US,,,,,,,,,,,['J1772'],,,2.0,ChargePoint Network,http://www.chargepoint.com/,,,,,,,,,,,,,,,,,,Public,,"{'station': ['USCPIL96441'], 'posts': ['110209', '110211']}",
53,public,24 hours daily,,,2021-06-22,,ELEC,Public,61829,,,E,CITY OF BANDON BANDON #1,888-758-4389,2021-06-22T00:42:47Z,,GPS,43.119134,-124.407312,Bandon,,,OR,555 US-101,97411,US,,,,,,,,,,,"['J1772', 'NEMA515']",,1.0,1.0,ChargePoint Network,http://www.chargepoint.com/,,,,,,,,,,,,,,,,,,Public,,"{'station': ['USCPIL85615'], 'posts': ['90337', '90339']}",
54,public,24 hours daily,,,2021-06-22,,ELEC,Public,62810,,,E,BEND BMW STATION 01,888-758-4389,2021-06-22T00:42:47Z,,GPS,44.039941,-121.305312,Bend,,,OR,1040 SW Division St,97702,US,,,,,,,,,,,['J1772'],,,2.0,ChargePoint Network,http://www.chargepoint.com/,,,,,,,,,,,,,,,,,,Public,,"{'station': ['USCPIL103073'], 'posts': ['121933', '121935']}",
55,public,,,,2021-06-22,,ELEC,Public,62982,2014-07-15,,E,Courtyard Marriott - Tigard Oregon,855-885-9571,2021-06-22T01:48:04Z,,GPS,45.407373,-122.746448,Tigard,,,OR,15686 SW Sequoia Parkway,97224,US,,,,,,,,,,,"['CHADEMO', 'J1772', 'J1772COMBO']",2.0,,1.0,OpConnect,http://www.opconnect.com/,,,,,,,,,,,,,,,,,,Public,,"{'station': ['97'], 'posts': ['181_1', '262_1', '262_2']}",
56,public,,,,2021-06-22,,ELEC,Public,62983,2014-07-01,,E,Lincoln Center - Gustav's Restaurant,855-885-9571,2021-06-22T01:48:04Z,,GPS,45.445072,-122.77554,Tigard,,,OR,10300 SW Greenburg Road,97223,US,,,,,,,,,,,"['CHADEMO', 'J1772', 'J1772COMBO']",2.0,,1.0,OpConnect,http://www.opconnect.com/,,,,,,,,,,,,,,,,,,Public,,"{'station': ['96'], 'posts': ['178_1', '284_1', '284_2']}",
57,public,,,,2021-06-22,,ELEC,Public,62984,2014-07-01,,E,Arlington Oregon City Hall,855-885-9571,2021-06-22T01:48:04Z,,GPS,45.7176,-120.20343,Arlington,,,OR,1310 Locust Ave.,97812,US,,,,,,,,,,,"['CHADEMO', 'J1772', 'J1772COMBO']",2.0,,1.0,OpConnect,http://www.opconnect.com/,,,SOLAR,,,,,,,,,,,,,,,Public,,"{'station': ['103'], 'posts': ['169_1', '321_1', '321_2']}",
58,public,,,,2021-06-22,,ELEC,Public,62985,2014-07-01,,E,Roth's South Salem Oregon,855-885-9571,2021-06-22T01:48:04Z,,GPS,44.910615,-123.046231,Salem,,,OR,3045 Commercial Street SE,97302,US,,,,,,,,,,,"['CHADEMO', 'J1772', 'J1772COMBO']",2.0,,1.0,OpConnect,http://www.opconnect.com/,,,,,,,,,,,,,,,,,,Public,,"{'station': ['99'], 'posts': ['182_1', '261_1', '261_2']}",
59,public,Dealership business hours,,,2021-06-07,,ELEC,Public,63646,2014-08-01,P,E,Suburban Ford,503-668-5511,2021-06-07T17:37:37Z,CAR_DEALER,200-9,45.400895,-122.281716,Sandy,,,OR,37000 Highway 26,97055,US,,,,,,,,,,,['J1772'],,,2.0,Non-Networked,,,Free,,,,,,,,,,,,,,,,Public,,,
60,public,24 hours daily,,,2021-06-22,,ELEC,Public,64106,,,E,UOP CHARGE LIBRARY 2,888-758-4389,2021-06-22T00:42:47Z,,GPS,45.573016,-122.726659,Portland,,,OR,N Mocks Landing Rd,97203,US,,,,,,,,,,,['J1772'],,,2.0,ChargePoint Network,http://www.chargepoint.com/,,,,,,,,,,,,,,,,,,Public,,"{'station': ['USCPIL90919'], 'posts': ['100307', '100309']}",
61,public,24 hours daily,,,2021-06-22,,ELEC,Public,64115,,,E,ARMSTRONG VW VW_423063_A,888-758-4389,2021-06-22T00:42:47Z,,GPS,45.376317,-122.600999,Gladstone,,,OR,20000 McLoughlin Blvd,97027,US,,,,,,,,,,,['J1772'],,,2.0,ChargePoint Network,http://www.chargepoint.com/,,,,,,,,,,,,,,,,,,Public,,"{'station': ['USCPIL107917'], 'posts': ['130889', '130891']}",
62,public,24 hours daily,,,2021-06-22,,ELEC,Public,65854,,,E,Banks - Jim's Thriftway,888-833-2148,2021-06-22T01:24:23Z,,GPS,45.61007,-123.11286,Banks,,,OR,660 Main Street,97106,US,,,,,,,,,,,['J1772'],,,1.0,Webasto,https://www.evsolutions.com/ev-network,,Level 2: $4 per session or $19.99 for monthly plan,,,,,,,,,,,,,,,,Public,,{'posts': ['284']},
63,public,24 hours daily,,,2021-06-22,,ELEC,Public,65855,,,E,Central Point - Fairground Chevron,888-833-2148,2021-06-22T01:24:23Z,,200-9,42.378367,-122.900702,Central Point,,,OR,1510 East Pine St,97497,US,,,,,,,,,,,"['CHADEMO', 'J1772']",1.0,,1.0,Webasto,https://www.evsolutions.com/ev-network,,"Level 2: $4 per session or $19.99 for monthly plan, DC Fast: $7.50 per session or $19.99 for monthly plan",,,,,,,,,,,,,,,,Public,,"{'posts': ['612', '685']}",
64,public,24 hours daily,,,2021-06-22,,ELEC,Public,65856,,,E,Roseburg - Wagon Wheel Restaurant,888-833-2148,2021-06-22T01:24:23Z,,200-9,43.226684,-123.355712,Roseburg,,,OR,227 NW Garden Valley RD,97470,US,,,,,,,,,,,"['CHADEMO', 'J1772']",1.0,,1.0,Webasto,https://www.evsolutions.com/ev-network,,"DC Fast: $7.50 per session or $19.99 for monthly plan, Level 2: $4 per session or $19.99 for monthly plan",,,,,,,,,,,,,,,,Public,,"{'posts': ['1237', '669']}",
65,public,24 hours daily,,,2021-06-22,,ELEC,Public,65857,,,E,Ashland - Shell,888-833-2148,2021-06-22T01:24:23Z,,200-8,42.185555,-122.668761,Ashland,,,OR,2373 Ashland Street,97520,US,,,,,,,,,,,"['CHADEMO', 'J1772']",1.0,,1.0,Webasto,https://www.evsolutions.com/ev-network,,"DC Fast: $7.50 per session or $19.99 for monthly plan, Level 2: $4 per session or $19.99 for monthly plan",,,,,,,,,,,,,,,,Public,,"{'posts': ['1174', '673']}",
66,public,24 hours daily,,,2021-06-22,,ELEC,Public,65858,,,E,Wolf Creek - Wolf Creek Inn,888-833-2148,2021-06-22T01:24:23Z,,200-8,42.695946,-123.395956,Wolf Creek,,,OR,100 Front Street,97497,US,,,,,,,,,,,"['CHADEMO', 'J1772']",1.0,,1.0,Webasto,https://www.evsolutions.com/ev-network,,"Level 2: $4 per session or $19.99 for monthly plan, DC Fast: $7.50 per session or $19.99 for monthly plan",,,,,,,,,,,,,,,,Public,,"{'posts': ['1229', '730']}",
67,public,24 hours daily,,,2021-06-22,,ELEC,Public,65863,,,E,Springfield - Gateway Marketplace,888-833-2148,2021-06-22T01:24:23Z,,200-8,44.084422,-123.039829,Springfield,,,OR,840 Beltline Road,97477,US,,,,,,,,,,,"['CHADEMO', 'J1772']",1.0,,1.0,Webasto,https://www.evsolutions.com/ev-network,,"DC Fast: $7.50 per session or $19.99 for monthly plan, Level 2: $4 per session or $19.99 for monthly plan",,,,,,,,,,,,,,,,Public,,"{'posts': ['2869', '790']}",
68,public,24 hours daily,,,2021-06-22,,ELEC,Public,65867,,,E,Newport - City of Newport Public Parking Lot,888-833-2148,2021-06-22T01:24:23Z,,200-9,44.632443,-124.055347,Newport,,,OR,925 Southwest Hurbert Street,97365,US,,,,,,,,,,,"['CHADEMO', 'J1772']",1.0,,1.0,Webasto,https://www.evsolutions.com/ev-network,,"DC Fast: $7.50 per session or $19.99 for monthly plan, Level 2: $4 per session or $19.99 for monthly plan",,,,,,,,,,,,,,,,Public,,"{'posts': ['1462', '804']}",
69,public,24 hours daily,,,2021-06-22,,ELEC,Public,65871,,,E,Oakland - Motel 6,888-833-2148,2021-06-22T01:24:23Z,,200-9,43.537046,-123.290133,Oakland,,,OR,621 John Long Road,97462,US,,,,,,,,,,,"['CHADEMO', 'J1772']",1.0,,1.0,Webasto,https://www.evsolutions.com/ev-network,,"DC Fast: $7.50 per session or $19.99 for monthly plan, Level 2: $4 per session or $19.99 for monthly plan",,,,,,,,,,,,,,,,Public,,"{'posts': ['1226', '955']}",
70,public,24 hours daily,,,2021-06-22,,ELEC,Public,65872,,,E,Canyonville - 7 Feathers Truck and Travel Center,888-833-2148,2021-06-22T01:24:23Z,,200-9,42.940681,-123.290092,Canyonville,,,OR,130 Creekside Rd,97417,US,,,,,,,,,,,"['CHADEMO', 'J1772']",1.0,,1.0,Webasto,https://www.evsolutions.com/ev-network,,"Level 2: $4 per session or $19.99 for monthly plan, DC Fast: $7.50 per session or $19.99 for monthly plan",,,,,,,,,,,,,,,,Public,,"{'posts': ['1178', '1215']}",
71,public,,,,2021-06-22,,ELEC,Public,65927,2015-01-01,,E,NE MLK Boulevard - Portland OR,855-885-9571,2021-06-22T01:48:04Z,,GPS,45.54913,-122.66145,Portland,,,OR,3640 Northeast Martin Luther King Junior Boulevard,97212,US,,,,,,,,,,,['J1772'],,,2.0,OpConnect,http://www.opconnect.com/,,,SOLAR,,,,,,,,,,,,,,,Public,,"{'station': ['114'], 'posts': ['227_1', '227_2']}",
72,public,11am-9pm daily; free for restaurant patrons,,,2021-05-06,,ELEC,Public,65944,2014-09-01,P,E,Cafe Yumm! - Argyle Square,503-638-9866,2021-05-06T13:19:19Z,RESTAURANT,GPS,45.334986,-122.766691,Wilsonville,Close to the I-5 exit for North Wilsonville and Elligson Road,,OR,8689 SW Robert Burns Dr,97070,US,,,,,,,,,,,['J1772'],,,2.0,Non-Networked,,,Free,,,,,,,,,,,,,,,,Public,,,
73,public,24 hours daily,,,2021-06-22,,ELEC,Public,66525,,,E,OSU OSU CAMPUS #1,888-758-4389,2021-06-22T00:42:47Z,,GPS,44.566295,-123.283836,Corvallis,,,OR,2900 SW Campus Way,97331,US,,,,,,,,,,,['J1772'],,,2.0,ChargePoint Network,http://www.chargepoint.com/,,,,,,,,,,,,,,,,,,Public,,"{'station': ['USCPIL1769741'], 'posts': ['8956361', '8956371']}",
74,public,24 hours daily,,,2021-06-22,,ELEC,Public,66600,,,E,WV EV STATION 1 WV EV STATION 1,888-758-4389,2021-06-22T00:42:47Z,,GPS,45.430256,-122.645106,Milwaukie,,,OR,12705 SE River Rd,97222,US,,,,,,,,,,,['J1772'],,,2.0,ChargePoint Network,http://www.chargepoint.com/,,,,,,,,,,,,,,,,,,Public,,"{'station': ['USCPIL117843'], 'posts': ['305222', '305224']}",
75,public,24 hours daily,,,2021-06-22,,ELEC,Public,67164,,,E,RIVERPLACE RIVERPLACE APT,888-758-4389,2021-06-22T00:42:47Z,,GPS,44.865232,-123.183309,Independence,,,OR,295 Deann Drive,97351,US,,,,,,,,,,,['J1772'],,,2.0,ChargePoint Network,http://www.chargepoint.com/,,,,,,,,,,,,,,,,,,Public,,"{'station': ['USCPIL117629'], 'posts': ['10832201', '10832211']}",
76,public,11am-5pm daily,,,2021-06-07,,ELEC,Public,69732,2015-09-01,P,E,Laurel Ridge Winery,503-852-7050,2021-06-07T17:37:37Z,BREWERY_DISTILLERY_WINERY,200-9,45.313977,-123.100942,Carlton,,,OR,13301 NE Kuelene Rd,97111,US,,,,,,,,,,,['J1772'],,,1.0,Non-Networked,,,Free,SOLAR,,,,,,,,,,,,,,,Public,,,
77,public,24 hours daily,,,2021-06-22,,ELEC,Public,69805,,,E,VW OF SALEM VW_423041_A,888-758-4389,2021-06-22T00:42:47Z,,GPS,44.973752,-123.018312,Salem,,,OR,3415 Del Webb Ave NE,97301,US,,,,,,,,,,,['J1772'],,,2.0,ChargePoint Network,http://www.chargepoint.com/,,,,,,,,,,,,,,,,,,Public,,"{'station': ['USCPIL107853'], 'posts': ['130725', '130727']}",
78,public,24 hours daily,,,2021-06-22,,ELEC,Public,71288,,,E,OSU JEFFERSON 3,888-758-4389,2021-06-22T00:42:47Z,,GPS,44.564876,-123.280561,Corvallis,,,OR,220 SW 26th St,97331,US,,,,,,,,,,,['J1772'],,,1.0,ChargePoint Network,http://www.chargepoint.com/,,,,,,,,,,,,,,,,,,Public,,"{'station': ['USCPIL1746971'], 'posts': ['8955211']}",
79,public,,,,2021-06-22,,ELEC,Public,71432,2019-04-22,,E,Tri-Met Oregon Park Ave Park N Ride,855-885-9571,2021-06-22T01:48:04Z,,GPS,45.429692,-122.635603,Portland,,,OR,2750 Southeast Park Ave.,97222,US,,,,,,,,,,,['J1772'],,,7.0,OpConnect,http://www.opconnect.com/,,,,,,,,,,,,,,,,,,Public,,"{'station': ['138'], 'posts': ['184_1', '185_1', '185_2', '186_1', '186_2', '187_1', '187_2']}",
80,public,24 hours daily,,,2021-06-22,,ELEC,Public,71851,,,E,FRED MEYER DC S. MEDFORD,888-758-4389,2021-06-22T00:42:47Z,,GPS,42.313893,-122.855354,Medford,,,OR,1307 Center Dr,97501,US,,,,,,,,,,,['J1772COMBO'],1.0,,,ChargePoint Network,http://www.chargepoint.com/,,,,,,,,,,,,,,,,,,Public,,"{'station': ['USCPIL118201'], 'posts': ['177307']}",
81,public,24 hours daily,,,2021-06-22,,ELEC,Public,71852,,,E,FRED MEYER DCE GRANTS PASS,888-758-4389,2021-06-22T00:42:47Z,,GPS,42.43512,-123.306507,Grants Pass,,,OR,1101 Grants Pass Pkwy,97526,US,,,,,,,,,,,['J1772COMBO'],1.0,,,ChargePoint Network,http://www.chargepoint.com/,,,,,,,,,,,,,,,,,,Public,,"{'station': ['USCPIL119025'], 'posts': ['177271']}",
82,public,24 hours daily,,,2021-06-22,,ELEC,Public,71917,,,E,FRED MEYER DC ROSEBURG,888-758-4389,2021-06-22T00:42:47Z,,GPS,43.228342,-123.368717,Roseburg,,,OR,929 NW Garden Valley Blvd,97471,US,,,,,,,,,,,['J1772COMBO'],1.0,,,ChargePoint Network,http://www.chargepoint.com/,,,,,,,,,,,,,,,,,,Public,,"{'station': ['USCPIL118493'], 'posts': ['177293']}",
83,public,24 hours daily,,,2021-06-22,,ELEC,Public,72279,,,E,LLOYD CENTER DC LLOYD CENTER,888-758-4389,2021-06-22T00:42:47Z,,GPS,45.531974,-122.652822,Portland,,,OR,2252 Lloyd Center,97232,US,,,,,,,,,,,"['CHADEMO', 'J1772COMBO']",1.0,,,ChargePoint Network,http://www.chargepoint.com/,,,,,,,,,,,,,,,,,,Public,,"{'station': ['USCPIL125603'], 'posts': ['183095']}",
84,public,24 hours daily,,,2021-06-22,,ELEC,Public,72280,,,E,FRED MEYER DC ALBANY,888-758-4389,2021-06-22T00:42:47Z,,GPS,44.631287,-123.076296,Albany,,,OR,2500 Santiam Hwy SE,97322,US,,,,,,,,,,,['J1772COMBO'],1.0,,,ChargePoint Network,http://www.chargepoint.com/,,,,,,,,,,,,,,,,,,Public,,"{'station': ['USCPIL119107'], 'posts': ['177235']}",
85,public,24 hours daily,,,2021-06-22,,ELEC,Public,73276,,,E,HIGHLANDCHEVRON WOODBURN EV 1-2,888-758-4389,2021-06-22T00:42:47Z,,GPS,45.150881,-122.878368,Woodburn,,,OR,993 Lawson Ave,97071,US,,,,,,,,,,,['J1772'],,,2.0,ChargePoint Network,http://www.chargepoint.com/,,,,,,,,,,,,,,,,,,Public,,"{'station': ['USCPIL126821'], 'posts': ['166009', '166011']}",
86,public,24 hours daily,,,2021-06-22,,ELEC,Public,73406,,,E,Halsey - Pioneer Villa Truck Plaza,888-833-2148,2021-06-22T01:24:23Z,,200-9,44.388302,-123.064601,Halsey,,,OR,33180 Highway 228,97348,US,,,,,,,,,,,"['CHADEMO', 'J1772']",1.0,,1.0,Webasto,https://www.evsolutions.com/ev-network,,"DC Fast: $7.50 per session or $19.99 for monthly plan, Level 2: $4 per session or $19.99 for monthly plan",,,,,,,,,,,,,,,,Public,,"{'posts': ['1200', '1377']}",
87,public,24 hours daily,,,2021-06-22,,ELEC,Public,73407,,,E,Cottage Grove - Vintage Inn Restaurant,888-833-2148,2021-06-22T01:24:23Z,,200-8,43.804346,-123.045188,Cottage Grove,,,OR,1570 Gateway Blvd,97424,US,,,,,,,,,,,"['CHADEMO', 'J1772']",1.0,,1.0,Webasto,https://www.evsolutions.com/ev-network,,"Level 2: $4 per session or $19.99 for monthly plan, DC Fast: $7.50 per session or $19.99 for monthly plan",,,,,,,,,,,,,,,,Public,,"{'posts': ['1213', '1245']}",
88,public,24 hours daily,,,2021-06-22,,ELEC,Public,73408,,,E,Grants Pass - Grants Pass Chamber of Commerce,888-833-2148,2021-06-22T01:24:23Z,,200-9,42.461886,-123.322942,Grants Pass,,,OR,1995 NW Vine Street,97528,US,,,,,,,,,,,"['CHADEMO', 'J1772']",1.0,,1.0,Webasto,https://www.evsolutions.com/ev-network,,"Level 2: $4 per session or $19.99 for monthly plan, DC Fast: $7.50 per session or $19.99 for monthly plan",,,,,,,,,,,,,,,,Public,,"{'posts': ['1218', '1247']}",
89,public,24 hours daily,,,2021-06-22,,ELEC,Public,73409,,,E,McKenzie Bridge - Blue Sky Market,888-833-2148,2021-06-22T01:24:23Z,,200-9,44.173131,-122.221159,McKenzie Bridge,,,OR,91808 Mill Creek Road,97413,US,,,,,,,,,,,"['CHADEMO', 'J1772']",1.0,,1.0,Webasto,https://www.evsolutions.com/ev-network,,"Level 2: $4 per session or $19.99 for monthly plan, DC Fast: $7.50 per session or $19.99 for monthly plan",,,,,,,,,,,,,,,,Public,,"{'posts': ['1221', '1473']}",
90,public,24 hours daily,,,2021-06-22,,ELEC,Public,73410,,,E,Sisters - Sisters Mainline Station,888-833-2148,2021-06-22T01:24:23Z,,200-9,44.297746,-121.562018,Sisters,,,OR,1001 West Railway Ave,97759,US,,,,,,,,,,,"['CHADEMO', 'J1772']",1.0,,1.0,Webasto,https://www.evsolutions.com/ev-network,,"Level 2: $4 per session or $19.99 for monthly plan, DC Fast: $7.50 per session or $19.99 for monthly plan",,,,,,,,,,,,,,,,Public,,"{'posts': ['1385', '2394']}",
91,public,24 hours daily,,,2021-06-22,,ELEC,Public,73411,,,E,Hood River - City of Hood River Public Parking Lot,888-833-2148,2021-06-22T01:24:23Z,,200-8,45.710116,-121.516401,Hood River,,,OR,607 Columbia Street,97031,US,,,,,,,,,,,"['CHADEMO', 'J1772']",1.0,,1.0,Webasto,https://www.evsolutions.com/ev-network,,"DC Fast: $7.50 per session or $19.99 for monthly plan, Level 2: $4 per session or $19.99 for monthly plan",,,,,,,,,,,,,,,,Public,,"{'posts': ['1284', '1463']}",
92,public,24 hours daily,,,2021-06-22,,ELEC,Public,73414,,,E,Detroit - Mountain High Grocery,888-833-2148,2021-06-22T01:24:23Z,,200-9,44.733181,-122.150001,Detroit,,,OR,245 N Detroit Ave,97342,US,,,,,,,,,,,"['CHADEMO', 'J1772']",1.0,,1.0,Webasto,https://www.evsolutions.com/ev-network,,"DC Fast: $7.50 per session or $19.99 for monthly plan, Level 2: $4 per session or $19.99 for monthly plan",,,,,,,,,,,,,,,,Public,,"{'posts': ['1380', '1891']}",
93,public,24 hours daily,,,2021-06-22,,ELEC,Public,73416,,,E,Astoria - Sunset Empire Transit District,888-833-2148,2021-06-22T01:24:23Z,,200-9,46.190172,-123.833328,Astoria,,,OR,900 Marine Drive,97103,US,,,,,,,,,,,"['CHADEMO', 'J1772']",1.0,,1.0,Webasto,https://www.evsolutions.com/ev-network,,"Level 2: $4 per session or $19.99 for monthly plan, DC Fast: $7.50 per session or $19.99 for monthly plan",,,,,,,,,,,,,,,,Public,,"{'posts': ['1423', '1475']}",
94,public,24 hours daily,,,2021-06-22,,ELEC,Public,73417,,,E,Newberg - Chevron,888-833-2148,2021-06-22T01:24:23Z,,200-9,45.30867,-122.941716,Newberg,,,OR,3745 East Portland Road,97132,US,,,,,,,,,,,"['CHADEMO', 'J1772']",1.0,,1.0,Webasto,https://www.evsolutions.com/ev-network,,"Level 2: $4 per session or $19.99 for monthly plan, DC Fast: $7.50 per session or $19.99 for monthly plan",,,,,,,,,,,,,,,,Public,,"{'posts': ['1468', '1818']}",
95,public,24 hours daily,,,2021-06-22,,ELEC,Public,73418,,,E,Banks - Jim's Thriftway,888-833-2148,2021-06-22T01:24:23Z,,GPS,45.61007,-123.11286,Banks,,,OR,660 Main Street Suite A,97106,US,,,,,,,,,,,['CHADEMO'],1.0,,,Webasto,https://www.evsolutions.com/ev-network,,DC Fast: $7.50 per session or $19.99 for monthly plan,,,,,,,,,,,,,,,,Public,,{'posts': ['1470']},
96,public,24 hours daily,,,2021-06-22,,ELEC,Public,73419,,,E,Florence - Three Rivers Casino,888-833-2148,2021-06-22T01:24:23Z,,200-9,43.976542,-124.087455,Florence,,,OR,5647 Highway 126,97439,US,,,,,,,,,,,"['CHADEMO', 'J1772']",1.0,,1.0,Webasto,https://www.evsolutions.com/ev-network,,"DC Fast: $7.50 per session or $19.99 for monthly plan, Level 2: $4 per session or $19.99 for monthly plan",,,,,,,,,,,,,,,,Public,,"{'posts': ['1609', '2188']}",
97,public,24 hours daily,,,2021-06-22,,ELEC,Public,73420,,,E,Scappoose - Fred Meyer,888-833-2148,2021-06-22T01:24:23Z,,200-9,45.741826,-122.877316,Scappoose,,,OR,51501 Columbia River Highway,97056,US,,,,,,,,,,,"['CHADEMO', 'J1772']",1.0,,1.0,Webasto,https://www.evsolutions.com/ev-network,,"Level 2: $4 per session or $19.99 for monthly plan, DC Fast: $7.50 per session or $19.99 for monthly plan",,,,,,,,,,,,,,,,Public,,"{'posts': ['1631', '2189']}",
98,public,24 hours daily,,,2021-06-22,,ELEC,Public,73421,,,E,McMinnville - Oregon Mutual Insurance,888-833-2148,2021-06-22T01:24:23Z,,200-8,45.210788,-123.197763,McMinnville,,,OR,410 NE Baker ST,97128,US,,,,,,,,,,,"['CHADEMO', 'J1772']",1.0,,1.0,Webasto,https://www.evsolutions.com/ev-network,,"DC Fast: $7.50 per session or $19.99 for monthly plan, Level 2: $4 per session or $19.99 for monthly plan",,,,,,,,,,,,,,,,Public,,"{'posts': ['2200', '2553']}",
99,public,24 hours daily,,,2021-06-22,,ELEC,Public,73422,,,E,Mill City - Mountain Edge Café,888-833-2148,2021-06-22T01:24:23Z,,200-8,44.756895,-122.480022,Mill City,,,OR,320 NW Santiam Blvd,97360,US,,,,,,,,,,,"['CHADEMO', 'J1772']",1.0,,1.0,Webasto,https://www.evsolutions.com/ev-network,,"Level 2: $4 per session or $19.99 for monthly plan, DC Fast: $7.50 per session or $19.99 for monthly plan",,,,,,,,,,,,,,,,Public,,"{'posts': ['1688', '2199']}",
100,public,24 hours daily,,,2021-06-22,,ELEC,Public,73423,,,E,Welches - Barlow Trail Roadhouse,888-833-2148,2021-06-22T01:24:23Z,,200-9,45.344393,-121.947981,Welches,,,OR,69580 East Highway 26,97067,US,,,,,,,,,,,"['CHADEMO', 'J1772']",1.0,,1.0,Webasto,https://www.evsolutions.com/ev-network,,"DC Fast: $7.50 per session or $19.99 for monthly plan, Level 2: $4 per session or $19.99 for monthly plan",,,,,,,,,,,,,,,,Public,,"{'posts': ['1699', '1837']}",
101,public,24 hours daily,,,2021-06-22,,ELEC,Public,73424,,,E,Lincoln City - Lincoln City Cultural Center,888-833-2148,2021-06-22T01:24:23Z,,200-9,44.970156,-124.014111,Lincoln City,,,OR,540 U.S. 101,97367,US,,,,,,,,,,,"['CHADEMO', 'J1772']",1.0,,1.0,Webasto,https://www.evsolutions.com/ev-network,,"DC Fast: $7.50 per session or $19.99 for monthly plan, Level 2: $4 per session or $19.99 for monthly plan",,,,,,,,,,,,,,,,Public,,"{'posts': ['1700', '1945']}",
102,public,24 hours daily,,,2021-06-22,,ELEC,Public,73425,,,E,City of Cascade Locks Public Parking Lot,888-833-2148,2021-06-22T01:24:23Z,,GPS,45.67071,-121.88823,Cascade Locks,,,OR,95 N.E. Wa Na Pa,97014,US,,,,,,,,,,,"['CHADEMO', 'J1772']",1.0,,1.0,Webasto,https://www.evsolutions.com/ev-network,,"DC Fast: $7.50 per session or $19.99 for monthly plan, Level 2: $4 per session or $19.99 for monthly plan",,,,,,,,,,,,,,,,Public,,"{'posts': ['1701', '2443']}",
103,public,24 hours daily,,,2021-06-22,,ELEC,Public,73426,,,E,Yachats - Yachats City Hall,888-833-2148,2021-06-22T01:24:23Z,,200-9,44.312715,-124.105434,Yachats,,,OR,441 Highway 101 N,97498,US,,,,,,,,,,,"['CHADEMO', 'J1772']",1.0,,1.0,Webasto,https://www.evsolutions.com/ev-network,,"DC Fast: $7.50 per session or $19.99 for monthly plan, Level 2: $4 per session or $19.99 for monthly plan",,,,,,,,,,,,,,,,Public,,"{'posts': ['1706', '1890']}",
104,public,24 hours daily,,,2021-06-22,,ELEC,Public,73427,,,E,Elkton - Brandborg Winery,888-833-2148,2021-06-22T01:24:23Z,,200-9,43.63635,-123.565872,Elkton,,,OR,345 First St,97436,US,,,,,,,,,,,"['CHADEMO', 'J1772']",1.0,,1.0,Webasto,https://www.evsolutions.com/ev-network,,"Level 2: $4 per session or $19.99 for monthly plan, DC Fast: $7.50 per session or $19.99 for monthly plan",,,,,,,,,,,,,,,,Public,,"{'posts': ['2203', '2574']}",
105,public,24 hours daily,,,2021-06-22,,ELEC,Public,73428,,,E,Warm Springs - Indian Head Casino,888-833-2148,2021-06-22T01:24:23Z,,GPS,44.76316,-121.25056,Warm Springs,,,OR,3236 US 26,97761,US,,,,,,,,,,,"['CHADEMO', 'J1772']",1.0,,1.0,Webasto,https://www.evsolutions.com/ev-network,,"DC Fast: $7.50 per session or $19.99 for monthly plan, Level 2: $4 per session or $19.99 for monthly plan",,,,,,,,,,,,,,,,Public,,"{'posts': ['1721', '2191']}",
106,public,24 hours daily,,,2021-06-22,,ELEC,Public,73429,,,E,Reedsport - Recreation Station,888-833-2148,2021-06-22T01:24:23Z,,200-8,43.697984,-124.112514,Reedsport,,,OR,1575 Highway 101 S,97467,US,,,,,,,,,,,"['CHADEMO', 'J1772']",1.0,,1.0,Webasto,https://www.evsolutions.com/ev-network,,"DC Fast: $7.50 per session or $19.99 for monthly plan, Level 2: $4 per session or $19.99 for monthly plan",,,,,,,,,,,,,,,,Public,,"{'posts': ['2213', '2682']}",
107,public,24 hours daily,,,2021-06-22,,ELEC,Public,73430,,,E,Monmouth - Dairy Queen,888-833-2148,2021-06-22T01:24:23Z,,200-9,44.846196,-123.229619,Monmouth,,,OR,320 Pacific Ave South,97361,US,,,,,,,,,,,"['CHADEMO', 'J1772']",1.0,,1.0,Webasto,https://www.evsolutions.com/ev-network,,"Level 2: $4 per session or $19.99 for monthly plan, DC Fast: $7.50 per session or $19.99 for monthly plan",,,,,,,,,,,,,,,,Public,,"{'posts': ['1739', '1884']}",
108,public,24 hours daily,,,2021-06-22,,ELEC,Public,73432,,,E,Spirit Mountain Casino Service Station,888-833-2148,2021-06-22T01:24:23Z,,200-9,45.060267,-123.57813,Grand Ronde,,,OR,26820 Salmon River Highway,97347,US,,,,,,,,,,,"['CHADEMO', 'J1772']",1.0,,1.0,Webasto,https://www.evsolutions.com/ev-network,,"DC Fast: $7.50 per session or $19.99 for monthly plan, Level 2: $4 per session or $19.99 for monthly plan",,,,,,,,,,,,,,,,Public,,"{'posts': ['1742', '1903']}",
109,public,24 hours daily,,,2021-06-22,,ELEC,Public,73434,,,E,Veneta - Veneta Park n' Ride,888-833-2148,2021-06-22T01:24:23Z,,200-9,44.051007,-123.351922,Veneta,,,OR,88184 Territorial Road,97487,US,,,,,,,,,,,"['CHADEMO', 'J1772']",1.0,,1.0,Webasto,https://www.evsolutions.com/ev-network,,"DC Fast: $7.50 per session or $19.99 for monthly plan, Level 2: $4 per session or $19.99 for monthly plan",,,,,,,,,,,,,,,,Public,,"{'posts': ['1780', '1897']}",
110,public,24 hours daily,,,2021-06-22,,ELEC,Public,73436,,,E,Tillamook - Fred Meyer,888-833-2148,2021-06-22T01:24:23Z,,200-9,45.474795,-123.845554,Tillamook,,,OR,2500 N Main St,97141,US,,,,,,,,,,,"['CHADEMO', 'J1772']",1.0,,1.0,Webasto,https://www.evsolutions.com/ev-network,,"DC Fast: $7.50 per session or $19.99 for monthly plan, Level 2: $4 per session or $19.99 for monthly plan",,,,,,,,,,,,,,,,Public,,"{'posts': ['1879', '2185']}",
111,public,24 hours daily,,,2021-06-22,,ELEC,Public,73438,,,E,Cannon Beach - Cannon Beach RV Resort,888-833-2148,2021-06-22T01:24:23Z,,200-9,45.890201,-123.954666,Cannon Beach,,,OR,340 Elk Creek Road,97110,US,,,,,,,,,,,"['CHADEMO', 'J1772']",1.0,,1.0,Webasto,https://www.evsolutions.com/ev-network,,"DC Fast: $7.50 per session or $19.99 for monthly plan, Level 2: $4 per session or $19.99 for monthly plan",,,,,,,,,,,,,,,,Public,,"{'posts': ['1960', '2174']}",
112,public,24 hours daily,,,2021-06-22,,ELEC,Public,73439,,,E,Coos Bay -Fred Meyer,888-833-2148,2021-06-22T01:24:23Z,,200-9,43.357193,-124.211286,Coos Bay,,,OR,1020 1st St,97420,US,,,,,,,,,,,"['CHADEMO', 'J1772']",1.0,,1.0,Webasto,https://www.evsolutions.com/ev-network,,"DC Fast: $7.50 per session or $19.99 for monthly plan, Level 2: $4 per session or $19.99 for monthly plan",,,,,,,,,,,,,,,,Public,,"{'posts': ['2195', '2759']}",
113,public,24 hours daily,,,2021-06-22,,ELEC,Public,73440,,,E,Albany - Chevron,888-833-2148,2021-06-22T01:24:23Z,,200-9,44.556383,-123.066374,Albany,,,OR,33157 Highway 34 SE,97322,US,,,,,,,,,,,"['CHADEMO', 'J1772']",1.0,,1.0,Webasto,https://www.evsolutions.com/ev-network,,"DC Fast: $7.50 per session or $19.99 for monthly plan, Level 2: $4 per session or $19.99 for monthly plan",,,,,,,,,,,,,,,,Public,,"{'posts': ['2201', '2323']}",
114,public,24 hours daily,,,2021-06-22,,ELEC,Public,73441,,,E,Redmond - Fred Meyer,888-833-2148,2021-06-22T01:24:23Z,,200-9,44.26766,-121.17681,Redmond,,,OR,944 SW Veterans Way,97756,US,,,,,,,,,,,['CHADEMO'],1.0,,,Webasto,https://www.evsolutions.com/ev-network,,DC Fast: $7.50 per session or $19.99 for monthly plan,,,,,,,,,,,,,,,,Public,,{'posts': ['2204']},
115,public,24 hours daily,,,2021-06-22,,ELEC,Public,73442,,,E,Westport - Berry Patch,888-833-2148,2021-06-22T01:24:23Z,,200-9,46.130686,-123.373559,WESTPORT,,,OR,49289 US 30,97016,US,,,,,,,,,,,"['CHADEMO', 'J1772']",1.0,,1.0,Webasto,https://www.evsolutions.com/ev-network,,"DC Fast: $7.50 per session or $19.99 for monthly plan, Level 2: $4 per session or $19.99 for monthly plan",,,,,,,,,,,,,,,,Public,,"{'posts': ['2205', '2545']}",
116,public,24 hours daily,,,2021-06-22,,ELEC,Public,73443,,,E,The Dalles - Fred Meyer,888-833-2148,2021-06-22T01:24:23Z,,200-9,45.606773,-121.199696,The Dalles,,,OR,1215 W 6th St,97058,US,,,,,,,,,,,"['CHADEMO', 'J1772']",1.0,,1.0,Webasto,https://www.evsolutions.com/ev-network,,"DC Fast: $7.50 per session or $19.99 for monthly plan, Level 2: $4 per session or $19.99 for monthly plan",,,,,,,,,,,,,,,,Public,,"{'posts': ['2208', '2407']}",
117,public,24 hours daily,,,2021-06-22,,ELEC,Public,73444,,,E,Government Camp - Ski Bowl West,888-833-2148,2021-06-22T01:24:23Z,,GPS,45.30191,-121.7733,Government Camp,,,OR,87000 East Highway 26,97028,US,,,,,,,,,,,"['CHADEMO', 'J1772']",1.0,,1.0,Webasto,https://www.evsolutions.com/ev-network,,"DC Fast: $7.50 per session or $19.99 for monthly plan, Level 2: $4 per session or $19.99 for monthly plan",,,,,,,,,,,,,,,,Public,,"{'posts': ['2216', '2402']}",
118,public,Dealership business hours,CALL,,2020-06-09,,ELEC,Public - Call ahead,73472,2010-11-26,P,E,Jim Sigel Automotive Center,541-237-6052,2021-03-11T23:22:17Z,CAR_DEALER,200-9,42.455987,-123.320245,Grants Pass,,,OR,1601 NE 7th St,97526,US,,,,,,,,,,,['J1772'],,,1.0,Non-Networked,,,Free,,,,,,,,,,,,,,,,Public - Appeler à l'avance,,,
119,public,24 hours daily,,,2021-06-07,,ELEC,Public,73759,2016-02-01,P,E,Hyland Estates,503-554-4200,2021-06-07T17:37:37Z,BREWERY_DISTILLERY_WINERY,200-9,45.268997,-123.020986,Dundee,,,OR,20980 NE Niederberger Rd,97115,US,,,,,,,,,,,['J1772'],,,1.0,Non-Networked,,,Free,,,,,,,,,,,,,,,,Public,,,
120,public,24 hours daily,,,2021-06-22,,ELEC,Public,73916,,,E,HASSALO GARAGE VELOMOR #1,888-758-4389,2021-06-22T00:42:47Z,,GPS,45.530594,-122.656712,Portland,,,OR,1061 NE 9th Ave,97232,US,,,,,,,,,,,['J1772'],,,2.0,ChargePoint Network,http://www.chargepoint.com/,,,,,,,,,,,,,,,,,,Public,,"{'station': ['USCPIL124145'], 'posts': ['2166711', '2166721']}",
121,public,,,,2021-06-22,,ELEC,Public,74212,2016-05-15,,E,"Madras, OR City Hall/PD",855-885-9571,2021-06-22T01:48:04Z,,GPS,44.630769,-121.131472,Madras,,,OR,71 SE D St,97741,US,,,,,,,,,,,"['CHADEMO', 'J1772', 'J1772COMBO']",2.0,,1.0,OpConnect,http://www.opconnect.com/,,,,,,,,,,,,,,,,,,Public,,"{'station': ['110'], 'posts': ['171_1', '210_1', '210_2']}",
122,private,8am-5pm daily; Employee and guest use only,,,2021-06-07,,ELEC,TEMPORARILY UNAVAILABLE (Private),74213,,P,T,SunPower,,2021-06-07T17:37:37Z,OFFICE_BLDG,200-9,45.55102,-122.939917,Hillsboro,,,OR,25300 NW Evergreen Rd,97124,US,,,,,,,,,,,"['CHADEMO', 'J1772']",1.0,,1.0,Non-Networked,,,Free,,,,,,,,,,,,,,,,TEMPORAIREMENT SUSPENDU (Privé),,,
123,public,24 hours daily,,,2021-06-22,,ELEC,Public,74696,,,E,ALOFT HOTEL DC FAST 01,888-758-4389,2021-06-22T00:42:47Z,,GPS,45.573211,-122.561278,Portland,,,OR,9920 NE Cascades Pkwy,97220,US,,,,,,,,,,,['J1772COMBO'],1.0,,,ChargePoint Network,http://www.chargepoint.com/,,,,,,,,,,,,,,,,,,Public,,"{'station': ['USCPIL118121'], 'posts': ['177321']}",
124,public,24 hours daily,,,2021-06-22,,ELEC,Public,74705,,,E,STADIUM PARKING GARAGE,888-758-4389,2021-06-22T00:42:47Z,,GPS,45.523855,-122.69492,Portland,,,OR,2121 W Burnside St,97210,US,,,,,,,,,,,['J1772'],,,2.0,ChargePoint Network,http://www.chargepoint.com/,,,,,,,,,,,,,,,,,,Public,,"{'station': ['USCPIL142993'], 'posts': ['5909001', '5909011']}",
125,public,24 hours daily,,,2021-06-22,,ELEC,Public,75376,,,E,SOU SOU LOT 27,888-758-4389,2021-06-22T00:42:47Z,,GPS,42.185539,-122.697112,Ashland,,,OR,1150 Ashland St,97520,US,,,,,,,,,,,['J1772'],,,2.0,ChargePoint Network,http://www.chargepoint.com/,,,,,,,,,,,,,,,,,,Public,,"{'station': ['USCPIL136753'], 'posts': ['440961', '440971']}",
126,public,24 hours daily,,,2021-06-22,,ELEC,Public,77347,,,E,Madras - Dairy Queen,888-833-2148,2021-06-22T01:24:23Z,,200-9,44.629007,-121.129054,Madras,,,OR,483 SE 5th street,97741,US,,,,,,,,,,,"['CHADEMO', 'J1772']",1.0,,1.0,Webasto,https://www.evsolutions.com/ev-network,,"Level 2: $4 per session or $19.99 for monthly plan, DC Fast: $7.50 per session or $19.99 for monthly plan",,,,,,,,,,,,,,,,Public,,"{'posts': ['1705', '2206']}",
127,public,24 hours daily,,,2021-06-22,,ELEC,Public,77348,,,E,Port Orford - Seaside Plaza,888-833-2148,2021-06-22T01:24:23Z,,200-9,42.74927,-124.497018,Port Orford,,,OR,1320 Oregon St,97465,US,,,,,,,,,,,"['CHADEMO', 'J1772']",1.0,,1.0,Webasto,https://www.evsolutions.com/ev-network,,"Level 2: $4 per session or $19.99 for monthly plan, DC Fast: $7.50 per session or $19.99 for monthly plan",,,,,,,,,,,,,,,,Public,,"{'posts': ['1734', '2215']}",
128,public,24 hours daily,,,2021-06-22,,ELEC,Public,77349,,,E,Woodburn - Woodburn Transit Center,888-833-2148,2021-06-22T01:24:23Z,,200-8,45.15136,-122.87629,Woodburn,,,OR,2875 Newburg Hwy,97071,US,,,,,,,,,,,"['CHADEMO', 'J1772']",1.0,,1.0,Webasto,https://www.evsolutions.com/ev-network,,"DC Fast: $7.50 per session or $19.99 for monthly plan, Level 2: $4 per session or $19.99 for monthly plan",,,,,,,,,,,,,,,,Public,,"{'posts': ['2198', '2868']}",
129,public,24 hours daily,,,2021-06-22,,ELEC,Public,77350,,,E,Brookings,888-833-2148,2021-06-22T01:24:23Z,,200-9,42.05418,-124.28892,Brookings,,,OR,325 5th st,97415,US,,,,,,,,,,,"['CHADEMO', 'J1772']",1.0,,1.0,Webasto,https://www.evsolutions.com/ev-network,,"Level 2: $4 per session or $19.99 for monthly plan, DC Fast: $7.50 per session or $19.99 for monthly plan",,,,,,,,,,,,,,,,Public,,"{'posts': ['2207', '2674']}",
130,public,24 hours daily,,,2021-06-22,,ELEC,Public,77444,,,E,COLUMBIA BASIN HEPPNER,888-758-4389,2021-06-22T00:42:47Z,,GPS,45.356558,-119.553373,Heppner,,,OR,389 N Main St,97836,US,,,,,,,,,,,['J1772'],,,2.0,ChargePoint Network,http://www.chargepoint.com/,,,,,,,,,,,,,,,,,,Public,,"{'station': ['USCPIL150701'], 'posts': ['2128701', '2128711']}",
131,public,24 hours daily,,,2021-06-22,,ELEC,Public,77866,,,E,PINE MTN SPORTS BIKE & SKI SHOP,888-758-4389,2021-06-22T00:42:47Z,,GPS,44.048003,-121.332346,Bend,,,OR,255 SW Century Drive,97702,US,,,,,,,,,,,['J1772'],,,2.0,ChargePoint Network,http://www.chargepoint.com/,,,,,,,,,,,,,,,,,,Public,,"{'station': ['USCPIL157995'], 'posts': ['786241', '786251']}",
132,public,24 hours daily,,,2021-06-22,,ELEC,Public,78232,,,E,COLUMBIA BASIN CONDON,888-758-4389,2021-06-22T00:42:47Z,,GPS,45.234126,-120.184295,Condon,,,OR,402 S Main St,97823,US,,,,,,,,,,,['J1772'],,,2.0,ChargePoint Network,http://www.chargepoint.com/,,,,,,,,,,,,,,,,,,Public,,"{'station': ['USCPIL150689'], 'posts': ['2159071', '2159081']}",
133,public,24 hours daily,,,2021-06-22,,ELEC,Public,78942,,,E,FIRST AND MAIN GARAGE #1,888-758-4389,2021-06-22T00:42:47Z,,GPS,45.515005,-122.676081,Portland,,,OR,100 SW Main,97204,US,,,,,,,,,,,['J1772'],,,2.0,ChargePoint Network,http://www.chargepoint.com/,,,,,,,,,,,,,,,,,,Public,,"{'station': ['USCPIL157971'], 'posts': ['211139', '211141']}",
134,public,24 hours daily,,,2021-06-22,,ELEC,Public,78953,,,E,HASSALO GARAGE ELWOOD BLDG #1,888-758-4389,2021-06-22T00:42:47Z,,GPS,45.530904,-122.656662,Portland,,,OR,1107 NE 9th Ave,97232,US,,,,,,,,,,,['J1772'],,,2.0,ChargePoint Network,http://www.chargepoint.com/,,,,,,,,,,,,,,,,,,Public,,"{'station': ['USCPIL124137'], 'posts': ['2057281', '2057291']}",
135,private,Fleet vehicle only,GOVERNMENT,,2021-02-22,,ELEC,Private - Government only,79135,2013-07-01,FG,E,Edith Green - Wendell Wyatt Federal Building,,2021-03-11T23:22:17Z,FED_GOV,200-9,45.514468,-122.677047,Portland,,,OR,1220 SW 3rd Ave,97204,US,,,,,,,,,,,['J1772'],,,6.0,Non-Networked,,,,,,,,,,,,,,,,,,,Privé - Réservé au gouvernement,,,"{'id': 21, 'code': 'GSA', 'name': 'General Services Administration'}"
136,public,24 hours daily,,,2021-06-22,,ELEC,Public,79184,,,E,BMW PORTLAND FRONT LOT,888-758-4389,2021-06-22T00:42:47Z,,GPS,45.519061,-122.694805,Portland,,,OR,2018 SW Madison St,97205,US,,,,,,,,,,,['J1772'],,,2.0,ChargePoint Network,http://www.chargepoint.com/,,,,,,,,,,,,,,,,,,Public,,"{'station': ['USCPIL95497'], 'posts': ['149965', '149967']}",
137,public,24 hours daily,,,2021-06-22,,ELEC,Public,79220,,,E,OSH OSH 1,888-758-4389,2021-06-22T00:42:47Z,,GPS,44.938542,-123.005982,Salem,,,OR,Bobolink Way,97301,US,,,,,,,,,,,['J1772'],,,2.0,ChargePoint Network,http://www.chargepoint.com/,,,,,,,,,,,,,,,,,,Public,,"{'station': ['USCPIL151723'], 'posts': ['202011', '202013']}",
138,public,24 hours daily,,,2021-06-22,,ELEC,Public,79303,,,E,REMER INC RUBY'S GRILL,888-758-4389,2021-06-22T00:42:47Z,,GPS,45.978568,-123.926604,Seaside,,,OR,2323 S Roosevelt Dr,97138,US,,,,,,,,,,,['J1772'],,,2.0,ChargePoint Network,http://www.chargepoint.com/,,,,,,,,,,,,,,,,,,Public,,"{'station': ['USCPIL155341'], 'posts': ['207409', '207411']}",
139,public,24 hours daily,,,2021-06-22,,ELEC,Public,80057,,,E,EV4 DC FAST 01,888-758-4389,2021-06-22T00:42:47Z,,GPS,45.487166,-122.637985,Portland,,,OR,2727 SE Raymond St,97202,US,,,,,,,,,,,['J1772COMBO'],1.0,,,ChargePoint Network,http://www.chargepoint.com/,,,,,,,,,,,,,,,,,,Public,,"{'station': ['USCPIL111937'], 'posts': ['149325']}",
140,public,24 hours daily,,,2021-06-22,,ELEC,Public,81177,,,E,DAS OREGON 550 BLD VISITOR,888-758-4389,2021-06-22T00:42:47Z,,GPS,44.941975,-123.025572,Salem,,,OR,550 capital st NE,97301,US,,,,,,,,,,,['J1772'],,,2.0,ChargePoint Network,http://www.chargepoint.com/,,,,,,,,,,,,,,,,,,Public,,"{'station': ['USCPIL162417'], 'posts': ['217111', '217113']}",
141,public,24 hours daily,,,2021-06-22,,ELEC,Public,81378,,,E,LCT LCT LOT #1,888-758-4389,2021-06-22T00:42:47Z,,GPS,45.532503,-122.657619,Portland,,,OR,825 NE Multnomah St,97232,US,,,,,,,,,,,['J1772'],,,2.0,ChargePoint Network,http://www.chargepoint.com/,,,,,,,,,,,,,,,,,,Public,,"{'station': ['USCPIL182137'], 'posts': ['778051', '778061']}",
142,private,For fleet use only,,,2021-05-06,,ELEC,Private,81506,2016-06-15,SG,E,Oregon Department of Energy,,2021-05-06T13:19:19Z,STATE_GOV,200-9,44.941989,-123.025697,Salem,,,OR,550 Capitol St NE,97301,US,,,,,,,,,,,['J1772'],,,1.0,Non-Networked,,,,,,,,,,,,,,,,,,,Privé,,,
143,public,24 hours daily,,,2021-06-22,,ELEC,Public,82087,,,E,GS INDIGO LLC STATION 2,888-758-4389,2021-06-22T00:42:47Z,,GPS,45.522397,-122.684126,Portland,,,OR,430 SW 13th Ave,97205,US,,,,,,,,,,,['J1772'],,,2.0,ChargePoint Network,http://www.chargepoint.com/,,,,,,,,,,,,,,,,,,Public,,"{'station': ['USCPIL186027'], 'posts': ['250835', '250837']}",
144,public,24 hours daily,,,2021-06-22,,ELEC,Public,82580,,,E,SAFEWAY SAFEWAY3212 1,888-758-4389,2021-06-22T00:42:47Z,,GPS,42.193609,-122.706279,Ashland,,,OR,585 Siskiyou Blvd,97520,US,,,,,,,,,,,['J1772'],,,2.0,ChargePoint Network,http://www.chargepoint.com/,,,,,,,,,,,,,,,,,,Public,,"{'station': ['USCPIL182193'], 'posts': ['245297', '245299']}",
145,public,24 hours daily,,,2021-06-22,,ELEC,Public,82604,,,E,SOFI LAKE OSWEG STATION 1,888-758-4389,2021-06-22T00:42:47Z,,GPS,45.41896,-122.715093,Lake Oswego,,,OR,15000 Davis Ln,97035,US,,,,,,,,,,,['J1772'],,,2.0,ChargePoint Network,http://www.chargepoint.com/,,,,,,,,,,,,,,,,,,Public,,"{'station': ['USCPIL157935'], 'posts': ['211073', '211075']}",
146,public,24 hours daily,,,2021-06-22,,ELEC,Public,85386,,,E,STATION1 SOFI CEDAR MILL,888-758-4389,2021-06-22T00:42:47Z,,GPS,45.521907,-122.799164,Portland,,,OR,11785 NW Timberview Ln,97229,US,,,,,,,,,,,['J1772'],,,2.0,ChargePoint Network,http://www.chargepoint.com/,,,,,,,,,,,,,,,,,,Public,,"{'station': ['USCPIL197789'], 'posts': ['266991', '266993']}",
147,public,24 hours daily,,,2021-06-22,,ELEC,Public,85666,,,E,CHARGEPOINT BW PORT 1A PORT 1B,888-758-4389,2021-06-22T00:42:47Z,,GPS,45.59404,-122.680944,Portland,,,OR,1215 N Hayden Meadows Dr.,97217,US,,,,,,,,,,,['J1772'],,,2.0,ChargePoint Network,http://www.chargepoint.com/,,,,,,,,,,,,,,,,,,Public,,"{'station': ['USCPIL167183'], 'posts': ['224239', '224241']}",
148,public,24 hours daily,,,2021-06-22,,ELEC,Public,86004,,,E,MEDFORD BMW STATION 02,888-758-4389,2021-06-22T00:42:47Z,,GPS,42.381273,-122.857148,Medford,,,OR,4600 Grumman Dr,97504,US,,,,,,,,,,,['J1772'],,,2.0,ChargePoint Network,http://www.chargepoint.com/,,,,,,,,,,,,,,,,,,Public,,"{'station': ['USCPIL104623'], 'posts': ['124885', '124887']}",
149,public,24 hours daily,,,2021-06-22,,ELEC,Public,86878,,,E,PARK AVENUE STATION 1,888-758-4389,2021-06-22T00:42:47Z,,GPS,45.519541,-122.680901,Portland,,,OR,820 SW Morrison St,97205,US,,,,,,,,,,,['J1772'],,,2.0,ChargePoint Network,http://www.chargepoint.com/,,,,,,,,,,,,,,,,,,Public,,"{'station': ['USCPIL206113'], 'posts': ['278303', '278305']}",
150,public,24 hours daily,,,2021-06-22,,ELEC,Public,86879,,,E,PARK AVENUE STATION 3,888-758-4389,2021-06-22T00:42:47Z,,GPS,45.519453,-122.680799,Portland,,,OR,727-789 SW Park Ave,97205,US,,,,,,,,,,,['J1772'],,,2.0,ChargePoint Network,http://www.chargepoint.com/,,,,,,,,,,,,,,,,,,Public,,"{'station': ['USCPIL196557'], 'posts': ['265403', '265405']}",
151,public,24 hours daily,,,2021-06-22,,ELEC,Public,86955,,,E,LINCOLN CITY LINCOLN DUAL 2,888-758-4389,2021-06-22T00:42:47Z,,GPS,44.976001,-124.011539,Lincoln City,,,OR,1401-1499 NE 15th St,97367,US,,,,,,,,,,,['J1772'],,,2.0,ChargePoint Network,http://www.chargepoint.com/,,,,,,,,,,,,,,,,,,Public,,"{'station': ['USCPIL214307'], 'posts': ['291189', '291191']}",
152,public,24 hours daily,,,2021-06-22,,ELEC,Public,87980,,,E,HILLSBORO OR PUB WORKS 2,888-758-4389,2021-06-22T00:42:47Z,,GPS,45.551867,-122.94907,Hillsboro,,,OR,4415 Northeast 30th,97124,US,,,,,,,,,,,['J1772'],,,2.0,ChargePoint Network,http://www.chargepoint.com/,,,,,,,,,,,,,,,,,,Public,,"{'station': ['USCPIL186661'], 'posts': ['13176691', '13176701']}",
153,public,24 hours daily,,,2021-06-22,,ELEC,Public,87981,,,E,HILLSBORO OR PUB WORKS 1,888-758-4389,2021-06-22T00:42:47Z,,GPS,45.551864,-122.949149,Hillsboro,,,OR,4415 NE 30th Ave,97124,US,,,,,,,,,,,['J1772'],,,2.0,ChargePoint Network,http://www.chargepoint.com/,,,,,,,,,,,,,,,,,,Public,,"{'station': ['USCPIL183641'], 'posts': ['247731', '247733']}",
154,private,Employee use only,,,2021-05-06,,ELEC,Private,92101,2016-06-15,SG,E,Oregon Department of Energy,,2021-05-06T13:19:19Z,STATE_GOV,200-9,44.941989,-123.025697,Salem,,,OR,550 Capitol St NE,97301,US,,,,,,,,,,,['NEMA520'],,12.0,,Non-Networked,,,,,,,,,,,,,,,,,,,Privé,,,
155,public,24 hours daily; parking permit required,,,2020-09-03,,ELEC,Public,92125,2018-03-07,P,E,Southern Oregon University - Lot 1,541-552-7275,2021-03-11T23:22:17Z,COLLEGE_CAMPUS,200-9,42.186396,-122.690383,Ashland,,,OR,1554 Webster St,97520,US,,,,,,,,,,,['J1772'],,,2.0,Non-Networked,,,Free,,,,,,,,,,,,,,,,Public,,,
156,public,24 hours daily; parking permit required,,,2020-05-06,,ELEC,Public,92126,2018-01-01,P,E,Southern Oregon University - Lot 27,541-552-7275,2021-03-11T23:22:17Z,COLLEGE_CAMPUS,200-8,42.186471,-122.694003,Ashland,,,OR,1250 Siskiyou Blvd,97520,US,,,,,,,,,,,['J1772'],,,1.0,Non-Networked,,,Free,,,,,,,,,,,,,,,,Public,,,
157,public,24 hours daily,,,2021-06-22,,ELEC,Public,92986,,,E,SOU SOU LOT 1 EAST,888-758-4389,2021-06-22T00:42:47Z,,GPS,42.18759,-122.691876,Ashland,,,OR,1554 Webster St,97520,US,,,,,,,,,,,['J1772'],,,2.0,ChargePoint Network,http://www.chargepoint.com/,,,,,,,,,,,,,,,,,,Public,,"{'station': ['USCPIL219201'], 'posts': ['297791', '297793']}",
158,private,Fleet use only,,,2020-09-03,,ELEC,Private,93767,2013-01-01,P,E,Southern Oregon University - Facilities Management & Planning,,2021-05-21T07:29:59Z,COLLEGE_CAMPUS,200-8,42.188483,-122.688136,Ashland,,,OR,351 Walker Ave,97520,US,,,,,,,,,,,,,,,,,,,,,,,,,,,,,,,,,,Privé,,,
159,public,24 hours daily,,,2021-06-22,,ELEC,Public,93826,,,E,CAPPELLA CHARGER,888-758-4389,2021-06-22T00:42:47Z,,GPS,44.888818,-123.059289,Salem,,,OR,4752 Liberty Rd S,97302,US,,,,,,,,,,,['J1772'],,,1.0,ChargePoint Network,http://www.chargepoint.com/,,,,,,,,,,,,,,,,,,Public,,"{'station': ['USCPIL353431'], 'posts': ['2237321']}",
160,public,24 hours daily,,,2021-06-22,,ELEC,Public,94513,,,E,BEND BMW STATION 02,888-758-4389,2021-06-22T00:42:47Z,,GPS,44.039696,-121.305527,Bend,,,OR,1000 SW Division St,97702,US,,,,,,,,,,,['J1772'],,,1.0,ChargePoint Network,http://www.chargepoint.com/,,,,,,,,,,,,,,,,,,Public,,"{'station': ['USCPIL316701'], 'posts': ['425671']}",
161,public,"9am-5pm M-Sat, 11am-5pm Sun; Also accepts PayPal",,A Cash D M V,2021-03-15,,ELEC,Public,94702,2018-02-15,P,E,Santa's Hardware,541-576-2999,2021-03-15T13:14:11Z,HARDWARE_STORE,200-9,43.237312,-120.690638,Christmas Valley,,,OR,87038 Christmas Valley Hwy,97641,US,,,,,,,,,,,['J1772'],,,1.0,Non-Networked,,,$2 per hour,,,,,,,,,,,,,,,,Public,,,
162,public,Office business hours; for employee and guest use only,,,2020-04-08,,ELEC,Public,94873,2017-06-30,P,E,Universal Recycling Technologies,866-816-7584,2021-03-11T23:22:17Z,OFFICE_BLDG,200-9,45.404067,-122.558917,Clackamas,,,OR,10145 SE Jennifer St,97015,US,,,,,,,,,,,['J1772'],,,2.0,EV Connect,http://evconnect.com/,,,,,,,,,,,,,,,,,,Public,,,
163,public,24 hours daily; for hotel guest use only,CALL,,2020-04-08,,ELEC,Public - Call ahead,94874,2016-06-26,P,E,Residence Inn,866-816-7584,2021-03-11T23:22:17Z,HOTEL,200-9,45.546484,-122.92822,Hillsboro,,,OR,3160 NE Brookwood Pkwy,97124,US,,,,,,,,,,,['J1772'],,,6.0,EV Connect,http://evconnect.com/,,,,,,,,,,,,,,,,,,Public - Appeler à l'avance,,,
164,public,MON: 24 hours | TUE: 24 hours | WED: 24 hours | THU: 24 hours | FRI: 24 hours | SAT: 24 hours | SUN: 24 hours,,,2021-06-21,,ELEC,Public,95053,,,E,IKEA - Portland,888-998-2546,2021-06-21T22:55:12Z,,GPS,45.57109,-122.554352,Portland,"NW corner of store, left of the main 
entrance.
",,OR,10280 NE Cascades Parkway,97220,US,,,,,,,,,,,['J1772'],,,2.0,Blink Network,http://www.blinkcharging.com/,,Level 2: $0.24 per kWh,,,,,,,,,,,,,,,,Public,,"{'station': ['49331'], 'posts': ['16168', '51740']}",
165,public,MON: 24 hours | TUE: 24 hours | WED: 24 hours | THU: 24 hours | FRI: 24 hours | SAT: 24 hours | SUN: 24 hours,,,2021-06-21,,ELEC,Public,95067,,,E,Oregon Convention Center,888-998-2546,2021-06-21T22:55:12Z,,GPS,45.526865,-122.663388,Portland,"Chargers only available during business 
hours.
",,OR,777 NE MLK Jr. Blvd.,97232,US,,,,,,,,,,,['J1772'],,,4.0,Blink Network,http://www.blinkcharging.com/,,Level 2: $0.49 per kWh,,,,,,,,,,,,,,,,Public,,"{'station': ['33262'], 'posts': ['37696', '421116', '45157', '509323']}",
166,public,MON: 24 hours | TUE: 24 hours | WED: 24 hours | THU: 24 hours | FRI: 24 hours | SAT: 24 hours | SUN: 24 hours,,,2021-06-21,,ELEC,Public,95080,,,E,Mult Co - Midland Library,888-998-2546,2021-06-21T22:55:12Z,,GPS,45.516346,-122.538201,Portland,,,OR,805 SE 122nd Avenue,97233,US,,,,,,,,,,,['J1772'],,,1.0,Blink Network,http://www.blinkcharging.com/,,Level 2: $0.49 per kWh,,,,,,,,,,,,,,,,Public,,"{'station': ['49780'], 'posts': ['17683']}",
167,private,MON: 24 hours | TUE: 24 hours | WED: 24 hours | THU: 24 hours | FRI: 24 hours | SAT: 24 hours | SUN: 24 hours,,,2021-06-21,,ELEC,Private,95129,,,E,Griffith Drive Building,888-998-2546,2021-06-21T22:55:12Z,,GPS,45.485607,-122.798062,Beaverton,,,OR,4755 SW Griffith Dr.,97005,US,,,,,,,,,,,['J1772'],,,2.0,Blink Network,http://www.blinkcharging.com/,,Level 2: $0.49 per kWh,,,,,,,,,,,,,,,,Privé,,"{'station': ['312467'], 'posts': ['13469', '86963']}",
168,public,MON: 24 hours | TUE: 24 hours | WED: 24 hours | THU: 24 hours | FRI: 24 hours | SAT: 24 hours | SUN: 24 hours,,,2021-06-21,,ELEC,Public,95135,,,E,Salem - Chemeketa Parkade,888-998-2546,2021-06-21T22:55:12Z,,GPS,44.942219,-123.038899,Salem,,,OR,338 Commercial St NE,97301,US,,,,,,,,,,,['J1772'],,,5.0,Blink Network,http://www.blinkcharging.com/,,Level 2: $0.49 per kWh,,,,,,,,,,,,,,,,Public,,"{'station': ['50487'], 'posts': ['11563', '11564', '11611', '528058', '87062']}",
169,public,MON: 24 hours | TUE: 24 hours | WED: 24 hours | THU: 24 hours | FRI: 24 hours | SAT: 24 hours | SUN: 24 hours,,,2021-06-21,,ELEC,Public,95137,,,E,Salem - Central Library,888-998-2546,2021-06-21T22:55:12Z,,GPS,44.93486,-123.041872,Salem,,,OR,585 Liberty Street SE,97301,US,,,,,,,,,,,['J1772'],,,2.0,Blink Network,http://www.blinkcharging.com/,,Level 2: $0.49 per kWh,,,,,,,,,,,,,,,,Public,,"{'station': ['50490'], 'posts': ['12392', '13822']}",
170,public,MON: 24 hours | TUE: 24 hours | WED: 24 hours | THU: 24 hours | FRI: 24 hours | SAT: 24 hours | SUN: 24 hours,,,2021-06-21,,ELEC,Public,95138,,,E,Mult Co - Rockwood Library,888-998-2546,2021-06-21T22:55:12Z,,GPS,45.519694,-122.478926,Portland,,,OR,17917 S.E. Stark Street,97233,US,,,,,,,,,,,['J1772'],,,1.0,Blink Network,http://www.blinkcharging.com/,,Level 2: $0.49 per kWh,,,,,,,,,,,,,,,,Public,,"{'station': ['50517'], 'posts': ['33386']}",
171,public,MON: 24 hours | TUE: 24 hours | WED: 24 hours | THU: 24 hours | FRI: 24 hours | SAT: 24 hours | SUN: 24 hours,,,2021-06-21,,ELEC,Public,95158,,,E,FRED MEYER - #360 Stadium,888-998-2546,2021-06-21T22:55:12Z,,GPS,45.523689,-122.692838,Portland,,,OR,100 NW 20th Place,97209,US,,,,,,,,,,,['J1772'],,,2.0,Blink Network,http://www.blinkcharging.com/,,Level 2: $0.49 per kWh,,,,,,,,,,,,,,,,Public,,"{'station': ['50754'], 'posts': ['11696', '11817']}",
172,public,MON: 24 hours | TUE: 24 hours | WED: 24 hours | THU: 24 hours | FRI: 24 hours | SAT: 24 hours | SUN: 24 hours,,,2021-06-21,,ELEC,Public,95159,,,E,FRED MEYER - #135 Hawthorne,888-998-2546,2021-06-21T22:55:12Z,,GPS,45.512679,-122.623593,Portland,,,OR,3805 SE Hawthorne Blvd,97214,US,,,,,,,,,,,['J1772'],,,2.0,Blink Network,http://www.blinkcharging.com/,,Level 2: $0.49 per kWh,,,,,,,,,,,,,,,,Public,,"{'station': ['50755'], 'posts': ['11740', '11741']}",
173,public,MON: 24 hours | TUE: 24 hours | WED: 24 hours | THU: 24 hours | FRI: 24 hours | SAT: 24 hours | SUN: 24 hours,,,2021-06-21,,ELEC,Public,95161,,,E,FRED MEYER - #127 Gresham,888-998-2546,2021-06-21T22:55:12Z,,GPS,45.494909,-122.404711,Gresham,"Units are located on south side of 
building near bottle return.
",,OR,2497 SE Burnside Rd,97080,US,,,,,,,,,,,['J1772'],,,2.0,Blink Network,http://www.blinkcharging.com/,,Level 2: $0.49 per kWh,,,,,,,,,,,,,,,,Public,,"{'station': ['50762'], 'posts': ['15968', '17692']}",
174,public,MON: 24 hours | TUE: 24 hours | WED: 24 hours | THU: 24 hours | FRI: 24 hours | SAT: 24 hours | SUN: 24 hours,,,2021-06-21,,ELEC,Public,95162,,,E,FRED MEYER - #482 Walker Road,888-998-2546,2021-06-21T22:55:12Z,,GPS,45.518342,-122.841327,Beaverton,,,OR,15995 SW Walker Road,97006,US,,,,,,,,,,,['J1772'],,,2.0,Blink Network,http://www.blinkcharging.com/,,Level 2: $0.49 per kWh,,,,,,,,,,,,,,,,Public,,"{'station': ['50763'], 'posts': ['15976', '16216']}",
175,public,MON: 24 hours | TUE: 24 hours | WED: 24 hours | THU: 24 hours | FRI: 24 hours | SAT: 24 hours | SUN: 24 hours,,,2021-06-21,,ELEC,Public,95225,,,E,Timberhill Athletic Club,888-998-2546,2021-06-21T22:55:12Z,,GPS,44.595571,-123.286015,Corvallis,,,OR,2855 NW 29th St.,97330,US,,,,,,,,,,,['J1772'],,,2.0,Blink Network,http://www.blinkcharging.com/,,Level 2: $0.49 per kWh,,,,,,,,,,,,,,,,Public,,"{'station': ['34958'], 'posts': ['13229', '23569']}",
176,public,MON: 24 hours | TUE: 24 hours | WED: 24 hours | THU: 24 hours | FRI: 24 hours | SAT: 24 hours | SUN: 24 hours,,,2021-06-21,,ELEC,Public,95226,,,E,Legacy Emanuel Hospital and Health Center,888-998-2546,2021-06-21T22:55:12Z,,GPS,45.5422579,-122.6695565,Portland,,,OR,2725 North Gantenbein Avenue,97227,US,,,,,,,,,,,['J1772'],,,4.0,Blink Network,http://www.blinkcharging.com/,,Level 2: $0.49 per kWh,,,,,,,,,,,,,,,,Public,,"{'station': ['51345'], 'posts': ['24815', '24816', '24817', '24819']}",
177,public,MON: 24 hours | TUE: 24 hours | WED: 24 hours | THU: 24 hours | FRI: 24 hours | SAT: 24 hours | SUN: 24 hours,,,2021-06-21,,ELEC,Public,95263,,,E,OSU - Fairbanks Hall,888-998-2546,2021-06-21T22:55:12Z,,GPS,44.564674,-123.28033,Corvallis,,,OR,220 NW 26th St.,97331,US,,,,,,,,,,,['J1772'],,,1.0,Blink Network,http://www.blinkcharging.com/,,Level 2: $0.49 per kWh,,,,,,,,,,,,,,,,Public,,"{'station': ['231995'], 'posts': ['25333']}",
178,public,MON: 24 hours | TUE: 24 hours | WED: 24 hours | THU: 24 hours | FRI: 24 hours | SAT: 24 hours | SUN: 24 hours,,,2021-06-21,,ELEC,Public,95284,,,E,Salem - Liberty Parkade,888-998-2546,2021-06-21T22:55:12Z,,GPS,44.939001,-123.039338,Salem,"Entrance to underground parking is on 
the east side of the complex on Liberty 
Street, which is a one-way street.
",,OR,199 Liberty St. SE,97301,US,,,,,,,,,,,['J1772'],,,2.0,Blink Network,http://www.blinkcharging.com/,,Level 2: $0.49 per kWh,,,,,,,,,,,,,,,,Public,,"{'station': ['68349'], 'posts': ['502656', '502662']}",
179,public,MON: 24 hours | TUE: 24 hours | WED: 24 hours | THU: 24 hours | FRI: 24 hours | SAT: 24 hours | SUN: 24 hours,,,2021-06-21,,ELEC,Public,95299,,,E,FRED MEYER - #393 Tualatin,888-998-2546,2021-06-21T22:55:12Z,,GPS,45.381549,-122.756283,Tualatin,"Chargers are located on the east side 
near the garden shop
",,OR,19200 SW Martinazzi,97062,US,,,,,,,,,,,"['CHADEMO', 'J1772']",2.0,,1.0,Blink Network,http://www.blinkcharging.com/,,Level 2: $0.59 per kWh,,,,,,,,,,,,,,,,Public,,"{'station': ['101278'], 'posts': ['34778', '37065']}",
180,public,MON: 10:00am-6:00pm | TUE: 10:00am-8:00pm | WED: 12:00pm-8:00pm | THU: 12:00pm-8:00pm | FRI: 10:00am-6:00pm | SAT: 10:00am-6:00pm | SUN: 10:00am-6:00pm,,,2021-06-21,,ELEC,Public,95301,,,E,Mult Co - Hillsdale Public Library,888-998-2546,2021-06-21T22:55:12Z,,GPS,45.479667,-122.693655,Portland,"Mon 10AM-6PM  - Tue 10AM-8PM - Wed & 
Thu 12PM-8PM - Fri & Sat 10AM-6PM - Sun 
10AM-5PM
",,OR,1525 SW Sunset Blvd,97239,US,,,,,,,,,,,['J1772'],,,2.0,Blink Network,http://www.blinkcharging.com/,,Level 2: $0.49 per kWh,,,,,,,,,,,,,,,,Public,,"{'station': ['52170'], 'posts': ['158624', '166178']}",
181,public,MON: 24 hours | TUE: 24 hours | WED: 24 hours | THU: 24 hours | FRI: 24 hours | SAT: 24 hours | SUN: 24 hours,,,2021-06-21,,ELEC,Public,95341,,,E,FRED MEYER - #128 Gateway,888-998-2546,2021-06-21T22:55:12Z,,GPS,45.530701,-122.558093,Portland,,,OR,1111 NE 102nd,97220,US,,,,,,,,,,,['J1772'],,,2.0,Blink Network,http://www.blinkcharging.com/,,Level 2: $0.49 per kWh,,,,,,,,,,,,,,,,Public,,"{'station': ['52795'], 'posts': ['40152', '96289']}",
182,public,MON: 24 hours | TUE: 24 hours | WED: 24 hours | THU: 24 hours | FRI: 24 hours | SAT: 24 hours | SUN: 24 hours,,,2021-06-21,,ELEC,Public,95357,,,E,Providence - Hood River Memorial Hospital,888-998-2546,2021-06-21T22:55:12Z,,GPS,45.704583,-121.522868,Hood River,"Chargers are located on Ground Level in 
the Northwest corner of the parking 
structure
",,OR,810 12th St,97031,US,,,,,,,,,,,['J1772'],,,2.0,Blink Network,http://www.blinkcharging.com/,,Level 2: $0.49 per kWh,,,,,,,,,,,,,,,,Public,,"{'station': ['282285'], 'posts': ['477627', '477835']}",
183,public,MON: 12:00am-11:58pm | TUE: 12:00am-11:58pm | WED: 12:00am-11:58pm | THU: 12:00am-11:58pm | FRI: 12:00am-11:58pm | SAT: 12:00am-11:58pm | SUN: 12:00am-11:58pm,,,2021-06-21,,ELEC,Public,95404,,,E,FRED MEYER - #663 Sandy,888-998-2546,2021-06-21T22:55:12Z,,GPS,45.402972,-122.294316,Sandy,,,OR,16625 SE 362nd Ave,97055,US,,,,,,,,,,,"['CHADEMO', 'J1772']",2.0,,1.0,Blink Network,http://www.blinkcharging.com/,,Level 2: $0.49 per kWh,,,,,,,,,,,,,,,,Public,,"{'station': ['53376'], 'posts': ['37441', '38859']}",
184,public,MON: 24 hours | TUE: 24 hours | WED: 24 hours | THU: 24 hours | FRI: 24 hours | SAT: 24 hours | SUN: 24 hours,,,2021-06-21,,ELEC,Public,95407,,,E,Oregon Research Institute,888-998-2546,2021-06-21T22:55:12Z,,GPS,44.048152,-123.068227,Eugene,,,OR,1700 Millrace Drive,97403,US,,,,,,,,,,,['J1772'],,,2.0,Blink Network,http://www.blinkcharging.com/,,Level 2: $0.49 per kWh,,,,,,,,,,,,,,,,Public,,"{'station': ['86161'], 'posts': ['41203', '53156']}",
185,public,MON: 24 hours | TUE: 24 hours | WED: 24 hours | THU: 24 hours | FRI: 24 hours | SAT: 24 hours | SUN: 24 hours,,,2021-06-21,,ELEC,Public,95415,,,E,Legacy Mount Hood Medical Center,888-998-2546,2021-06-21T22:55:12Z,,GPS,45.517162,-122.407497,Gresham,,,OR,24800 SE Stark St,97030,US,,,,,,,,,,,['J1772'],,,2.0,Blink Network,http://www.blinkcharging.com/,,Level 2: $0.49 per kWh,,,,,,,,,,,,,,,,Public,,"{'station': ['37061'], 'posts': ['502638', '502691']}",
186,public,MON: 24 hours | TUE: 24 hours | WED: 24 hours | THU: 24 hours | FRI: 24 hours | SAT: 24 hours | SUN: 24 hours,,,2021-06-21,,ELEC,Public,95517,,,E,Tigard - Senior Center,888-998-2546,2021-06-21T22:55:12Z,,GPS,45.422253,-122.766953,Tigard,,,OR,8740 SW Omara St.,97223,US,,,,,,,,,,,['J1772'],,,1.0,Blink Network,http://www.blinkcharging.com/,,Level 2: $0.49 per kWh,,,,,,,,,,,,,,,,Public,,"{'station': ['70975'], 'posts': ['41221']}",
187,public,MON: 24 hours | TUE: 24 hours | WED: 24 hours | THU: 24 hours | FRI: 24 hours | SAT: 24 hours | SUN: 24 hours,,,2021-06-21,,ELEC,Public,95593,,,E,Legacy Meridian Park Hospital,888-998-2546,2021-06-21T22:55:12Z,,GPS,45.379814,-122.743093,Tualatin,,,OR,19300 Southwest 65th Avenue,97062,US,,,,,,,,,,,['J1772'],,,3.0,Blink Network,http://www.blinkcharging.com/,,Level 2: $0.49 per kWh,,,,,,,,,,,,,,,,Public,,"{'station': ['39073'], 'posts': ['174482', '24799', '34373']}",
188,public,MON: 24 hours | TUE: 24 hours | WED: 24 hours | THU: 24 hours | FRI: 24 hours | SAT: 24 hours | SUN: 24 hours,,,2021-06-21,,ELEC,Public,95628,,,E,"McDonald's on Cornelius Pass Rd in Hillsboro, OR",888-998-2546,2021-06-21T22:55:12Z,,GPS,45.56559,-122.894732,Hillsboro,,,OR,6393 NW Cornelius Pass Rd,97124,US,,,,,,,,,,,['J1772'],,,2.0,Blink Network,http://www.blinkcharging.com/,,Level 2: $0.49 per kWh,,,,,,,,,,,,,,,,Public,,"{'station': ['203093'], 'posts': ['39758', '46695']}",
189,public,MON: 24 hours | TUE: 24 hours | WED: 24 hours | THU: 24 hours | FRI: 24 hours | SAT: 24 hours | SUN: 24 hours,,,2021-06-21,,ELEC,Public,95690,,,E,First Alternative Cooperative North,888-998-2546,2021-06-21T22:55:12Z,,GPS,44.579023,-123.282687,Corvallis,,,OR,2855 NW Grant St,97330,US,,,,,,,,,,,['J1772'],,,2.0,Blink Network,http://www.blinkcharging.com/,,Level 2: $0.49 per kWh,,,,,,,,,,,,,,,,Public,,"{'station': ['138289'], 'posts': ['441661', '441664']}",
190,public,MON: 24 hours | TUE: 24 hours | WED: 24 hours | THU: 24 hours | FRI: 24 hours | SAT: 24 hours | SUN: 24 hours,,,2021-06-21,,ELEC,Public,95732,,,E,FRED MEYER - #242 Oregon City,888-998-2546,2021-06-21T22:55:12Z,,GPS,45.330009,-122.585212,Oregon City,,,OR,1839 Molalla Avenue,97045,US,,,,,,,,,,,['J1772'],,,2.0,Blink Network,http://www.blinkcharging.com/,,Level 2: $0.49 per kWh,,,,,,,,,,,,,,,,Public,,"{'station': ['56852'], 'posts': ['37365', '41477']}",
191,private,MON: 24 hours | TUE: 24 hours | WED: 24 hours | THU: 24 hours | FRI: 24 hours | SAT: 24 hours | SUN: 24 hours,,,2021-06-21,,ELEC,Private,95743,,,E,Hawthorne Auto Clinic,888-998-2546,2021-06-21T22:55:12Z,,GPS,45.512037,-122.618159,PORTLAND,,,OR,4307 SE HAWTHORNE BLVD,97215,US,,,,,,,,,,,['J1772'],,,1.0,Blink Network,http://www.blinkcharging.com/,,Level 2: $0.49 per kWh,,,,,,,,,,,,,,,,Privé,,"{'station': ['57122'], 'posts': ['12088']}",
192,public,MON: 24 hours | TUE: 24 hours | WED: 24 hours | THU: 24 hours | FRI: 24 hours | SAT: 24 hours | SUN: 24 hours,,,2021-06-21,,ELEC,Public,95750,,,E,Hotel Rose Portland,888-998-2546,2021-06-21T22:55:12Z,,GPS,45.517469,-122.673361,Portland,"Valet
",,OR,50 SW Morrison Street,97204,US,,,,,,,,,,,['J1772'],,,2.0,Blink Network,http://www.blinkcharging.com/,,Level 2: $0.49 per kWh,,,,,,,,,,,,,,,,Public,,"{'station': ['270211'], 'posts': ['441635', '441638']}",
193,public,MON: 24 hours | TUE: 24 hours | WED: 24 hours | THU: 24 hours | FRI: 24 hours | SAT: 24 hours | SUN: 24 hours,,,2021-06-21,,ELEC,Public,95751,,,E,Multnomah County - Parking Structure,888-998-2546,2021-06-21T22:55:12Z,,GPS,45.512013,-122.66054,Portland,"Open Mon - Fri 7am-6pm; Closed Sat & Sun
",,OR,500 SE Hawthorne Blvd,97214,US,,,,,,,,,,,['J1772'],,,2.0,Blink Network,http://www.blinkcharging.com/,,Level 2: $0.49 per kWh,,,,,,,,,,,,,,,,Public,,"{'station': ['40845'], 'posts': ['24798', '24820']}",
194,public,MON: 24 hours | TUE: 24 hours | WED: 24 hours | THU: 24 hours | FRI: 24 hours | SAT: 24 hours | SUN: 24 hours,,,2021-06-21,,ELEC,Public,95757,,,E,Eastgate Business Center,888-998-2546,2021-06-21T22:55:12Z,,GPS,44.563768,-123.225812,Corvallis,,,OR,33900 SE Eastgate Circle,97333,US,,,,,,,,,,,['J1772'],,,3.0,Blink Network,http://www.blinkcharging.com/,,Level 2: $0.49 per kWh,,,,,,,,,,,,,,,,Public,,"{'station': ['24505'], 'posts': ['478144', '478277', '478293']}",
195,public,MON: 24 hours | TUE: 24 hours | WED: 24 hours | THU: 24 hours | FRI: 24 hours | SAT: 24 hours | SUN: 24 hours,,,2021-06-21,,ELEC,Public,95805,,,E,Old West Salem City Hall,888-998-2546,2021-06-21T22:55:12Z,,GPS,44.939611,-123.060235,Salem,,,OR,1320 Edgewater St. NW,97304,US,,,,,,,,,,,['J1772'],,,2.0,Blink Network,http://www.blinkcharging.com/,,Level 2: $0.49 per kWh,,,,,,,,,,,,,,,,Public,,"{'station': ['57705'], 'posts': ['477727', '477991']}",
196,public,MON: 24 hours | TUE: 24 hours | WED: 24 hours | THU: 24 hours | FRI: 24 hours | SAT: 24 hours | SUN: 24 hours,,,2021-06-21,,ELEC,Public,95891,,,E,Hillsboro - Main Library,888-998-2546,2021-06-21T22:55:12Z,,GPS,45.543513,-122.936116,Hillsboro,"Entrance to parking lot is across from 
the Hillsboro Airport. Units located at 
north end of building.
",,OR,2850 NE Brookwood Pkwy,97124,US,,,,,,,,,,,['J1772'],,,4.0,Blink Network,http://www.blinkcharging.com/,,Level 2: $0.49 per kWh,,,,,,,,,,,,,,,,Public,,"{'station': ['25567'], 'posts': ['502663', '502668', '502682', '509954']}",
197,public,MON: 24 hours | TUE: 24 hours | WED: 24 hours | THU: 24 hours | FRI: 24 hours | SAT: 24 hours | SUN: 24 hours,,,2021-06-21,,ELEC,Public,95918,,,E,OSU - Linus Pauling Science Center,888-998-2546,2021-06-21T22:55:12Z,,GPS,44.56629,-123.283795,Corvallis,,,OR,2750 SW Campus Way,97331,US,,,,,,,,,,,['J1772'],,,2.0,Blink Network,http://www.blinkcharging.com/,,Level 2: $0.49 per kWh,,,,,,,,,,,,,,,,Public,,"{'station': ['58601'], 'posts': ['17780', '46903']}",
198,public,MON: 24 hours | TUE: 24 hours | WED: 24 hours | THU: 24 hours | FRI: 24 hours | SAT: 24 hours | SUN: 24 hours,,,2021-06-21,,ELEC,Public,95931,,,E,Tigard - Public Works,888-998-2546,2021-06-21T22:55:12Z,,GPS,45.427235,-122.767239,Tigard,,,OR,8777 SW Burnham St.,97223,US,,,,,,,,,,,['J1772'],,,1.0,Blink Network,http://www.blinkcharging.com/,,Level 2: $0.49 per kWh,,,,,,,,,,,,,,,,Public,,"{'station': ['75191'], 'posts': ['75190']}",
199,public,MON: 24 hours | TUE: 24 hours | WED: 24 hours | THU: 24 hours | FRI: 24 hours | SAT: 24 hours | SUN: 24 hours,,,2021-06-21,,ELEC,Public,95932,,,E,Forest Grove - Theater Parking,888-998-2546,2021-06-21T22:55:12Z,,GPS,45.520381,-123.113039,Forest Grove,,,OR,1926 21st Avenue,97116,US,,,,,,,,,,,['J1772'],,,2.0,Blink Network,http://www.blinkcharging.com/,,Level 2: $0.49 per kWh,,,,,,,,,,,,,,,,Public,,"{'station': ['42512'], 'posts': ['13227', '13808']}",
200,public,MON: 24 hours | TUE: 24 hours | WED: 24 hours | THU: 24 hours | FRI: 24 hours | SAT: 24 hours | SUN: 24 hours,,,2021-06-21,,ELEC,Public,95938,,,E,Providence - St. Vincent Medical Center,888-998-2546,2021-06-21T22:55:12Z,,GPS,45.509742,-122.771026,Portland,,,OR,9205 SW Barnes Rd,97225,US,,,,,,,,,,,['J1772'],,,4.0,Blink Network,http://www.blinkcharging.com/,,Level 2: $0.49 per kWh,,,,,,,,,,,,,,,,Public,,"{'station': ['75375'], 'posts': ['477463', '477612', '477646', '478096']}",
201,private,MON: 24 hours | TUE: 24 hours | WED: 24 hours | THU: 24 hours | FRI: 24 hours | SAT: 24 hours | SUN: 24 hours,,,2021-06-21,,ELEC,Private,95940,,,E,Providence - Office Park,888-998-2546,2021-06-21T22:55:12Z,,GPS,45.5335,-122.617841,Portland,"Employees & Visitors Only - M-F 7am-7 pm
",,OR,4400 NE Halsey St,97213,US,,,,,,,,,,,['J1772'],,,2.0,Blink Network,http://www.blinkcharging.com/,,Level 2: $0.49 per kWh,,,,,,,,,,,,,,,,Privé,,"{'station': ['75376'], 'posts': ['477815', '478164']}",
202,public,MON: 24 hours | TUE: 24 hours | WED: 24 hours | THU: 24 hours | FRI: 24 hours | SAT: 24 hours | SUN: 24 hours,,,2021-06-21,,ELEC,Public,95942,,,E,Providence - Milwaukie Hospital,888-998-2546,2021-06-21T22:55:12Z,,GPS,45.448879,-122.627307,Milwaukie,,,OR,10150 SE 32nd Ave,97222,US,,,,,,,,,,,['J1772'],,,2.0,Blink Network,http://www.blinkcharging.com/,,Level 2: $0.49 per kWh,,,,,,,,,,,,,,,,Public,,"{'station': ['75378'], 'posts': ['477561', '477862']}",
203,public,MON: 24 hours | TUE: 24 hours | WED: 24 hours | THU: 24 hours | FRI: 24 hours | SAT: 24 hours | SUN: 24 hours,,,2021-06-21,,ELEC,Public,95943,,,E,Providence - Willamette Falls Medical Center,888-998-2546,2021-06-21T22:55:12Z,,GPS,45.356723,-122.586643,Oregon City,"Chargers in parking lot in front of  
Providence Willamette Falls Medical 
Plaza II entrance.
",,OR,1500 Division St.,97045,US,,,,,,,,,,,['J1772'],,,4.0,Blink Network,http://www.blinkcharging.com/,,Level 2: $0.49 per kWh,,,,,,,,,,,,,,,,Public,,"{'station': ['75381'], 'posts': ['477624', '477679', '503438', '529154']}",
204,public,MON: 24 hours | TUE: 24 hours | WED: 24 hours | THU: 24 hours | FRI: 24 hours | SAT: 24 hours | SUN: 24 hours,,,2021-06-21,,ELEC,Public,95944,,,E,Providence Medical Group - Tanasbourne,888-998-2546,2021-06-21T22:55:12Z,,GPS,45.533717,-122.868141,Hillsboro,,,OR,18530 NW Cornell Road,97124,US,,,,,,,,,,,['J1772'],,,2.0,Blink Network,http://www.blinkcharging.com/,,Level 2: $0.49 per kWh,,,,,,,,,,,,,,,,Public,,"{'station': ['75380'], 'posts': ['477745', '497770']}",
205,public,MON: 24 hours | TUE: 24 hours | WED: 24 hours | THU: 24 hours | FRI: 24 hours | SAT: 24 hours | SUN: 24 hours,,,2021-06-21,,ELEC,Public,95946,,,E,Providence - Bridgeport Health Center,888-998-2546,2021-06-21T22:55:12Z,,GPS,45.390767,-122.75109,Tigard,,,OR,18040 SW Lower Boones Ferry Road,97224,US,,,,,,,,,,,['J1772'],,,2.0,Blink Network,http://www.blinkcharging.com/,,Level 2: $0.49 per kWh,,,,,,,,,,,,,,,,Public,,"{'station': ['75382'], 'posts': ['477436', '477877']}",
206,public,MON: 24 hours | TUE: 24 hours | WED: 24 hours | THU: 24 hours | FRI: 24 hours | SAT: 24 hours | SUN: 24 hours,,,2021-06-21,,ELEC,Public,95947,,,E,Providence - Portland Medical Center - Glisan Parking Garage West,888-998-2546,2021-06-21T22:55:12Z,,GPS,45.527803,-122.612077,Portland,"Entrance ramp off of NE 49th Ave.
",,OR,4805 NE Glisan St,97213,US,,,,,,,,,,,['J1772'],,,4.0,Blink Network,http://www.blinkcharging.com/,,Level 2: $0.49 per kWh,,,,,,,,,,,,,,,,Public,,"{'station': ['75403'], 'posts': ['477299', '477471', '478226', '503504']}",
207,public,MON: 24 hours | TUE: 24 hours | WED: 24 hours | THU: 24 hours | FRI: 24 hours | SAT: 24 hours | SUN: 24 hours,,,2021-06-21,,ELEC,Public,95984,,,E,Salem Riverfront Park,888-998-2546,2021-06-21T22:55:12Z,,GPS,44.943012,-123.041753,Salem,,,OR,200 Water St NE,97301,US,,,,,,,,,,,['J1772'],,,2.0,Blink Network,http://www.blinkcharging.com/,,Level 2: $0.49 per kWh,,,,,,,,,,,,,,,,Public,,"{'station': ['108464'], 'posts': ['12837', '13373']}",
208,public,MON: 24 hours | TUE: 24 hours | WED: 24 hours | THU: 24 hours | FRI: 24 hours | SAT: 24 hours | SUN: 24 hours,,,2021-06-21,,ELEC,Public,96042,,,E,OSU - Parking Structure,888-998-2546,2021-06-21T22:55:12Z,,GPS,44.561613,-123.278334,Corvallis,,,OR,1710 SW May Avenue,97333,US,,,,,,,,,,,['J1772'],,,6.0,Blink Network,http://www.blinkcharging.com/,,Level 2: $0.49 per kWh,,,,,,,,,,,,,,,,Public,,"{'station': ['59721'], 'posts': ['477413', '477544', '478108', '478259', '502486', '502488']}",
209,public,MON: 24 hours | TUE: 24 hours | WED: 24 hours | THU: 24 hours | FRI: 24 hours | SAT: 24 hours | SUN: 24 hours,,,2021-06-21,,ELEC,Public,96065,,,E,Suntek Business Center - NPM,888-998-2546,2021-06-21T22:55:12Z,,GPS,45.508692,-122.774947,Portland,,,OR,9450 SW Barnes Rd,97086,US,,,,,,,,,,,['J1772'],,,4.0,Blink Network,http://www.blinkcharging.com/,,Level 2: $0.49 per kWh,,,,,,,,,,,,,,,,Public,,"{'station': ['60036'], 'posts': ['13322', '13323', '13324', '22620']}",
210,public,MON: 24 hours | TUE: 24 hours | WED: 24 hours | THU: 24 hours | FRI: 24 hours | SAT: 24 hours | SUN: 24 hours,,,2021-06-21,,ELEC,Public,96071,,,E,Portland State University,888-998-2546,2021-06-21T22:55:12Z,,GPS,45.511087,-122.682958,Portland,"Parking Payment Required:  - $4/Hour  - 
Hourly Parking Only  - 4 Hour Limit
",,OR,1872 SW Broadway,97201,US,,,,,,,,,,,['J1772'],,,2.0,Blink Network,http://www.blinkcharging.com/,,Free,,,,,,,,,,,,,,,,Public,,"{'station': ['207535'], 'posts': ['25350', '52895']}",
211,public,MON: 24 hours | TUE: 24 hours | WED: 24 hours | THU: 24 hours | FRI: 24 hours | SAT: 24 hours | SUN: 24 hours,,,2021-06-21,,ELEC,Public,96083,,,E,Pringle Schoolhouse,888-998-2546,2021-06-21T22:55:12Z,,GPS,44.883384,-123.012592,Salem,,,OR,4985 Battle Creek Rd. SE,97302,US,,,,,,,,,,,['J1772'],,,2.0,Blink Network,http://www.blinkcharging.com/,,Level 2: $0.49 per kWh,,,,,,,,,,,,,,,,Public,,"{'station': ['289578'], 'posts': ['477507', '477685']}",
212,public,MON: 24 hours | TUE: 24 hours | WED: 24 hours | THU: 24 hours | FRI: 24 hours | SAT: 24 hours | SUN: 24 hours,,,2021-06-21,,ELEC,Public,96129,,,E,FRED MEYER - #153 Johnson Creek,888-998-2546,2021-06-21T22:55:12Z,,GPS,45.459184,-122.581079,Happy Valley,"Northeast corner of the building
",,OR,8955 SE 82nd Ave,97086,US,,,,,,,,,,,['J1772'],,,2.0,Blink Network,http://www.blinkcharging.com/,,Level 2: $0.49 per kWh,,,,,,,,,,,,,,,,Public,,"{'station': ['175332'], 'posts': ['12513', '15572']}",
213,public,MON: 24 hours | TUE: 24 hours | WED: 24 hours | THU: 24 hours | FRI: 24 hours | SAT: 24 hours | SUN: 24 hours,,,2021-06-21,,ELEC,Public,96130,,,E,FRED MEYER - #325 Eugene,888-998-2546,2021-06-21T22:55:12Z,,GPS,44.098813,-123.127006,Eugene,,,OR,60 Division Street,97404,US,,,,,,,,,,,['J1772'],,,2.0,Blink Network,http://www.blinkcharging.com/,,Level 2: $0.49 per kWh,,,,,,,,,,,,,,,,Public,,"{'station': ['175333'], 'posts': ['37524', '80762']}",
214,public,MON: 24 hours | TUE: 24 hours | WED: 24 hours | THU: 24 hours | FRI: 24 hours | SAT: 24 hours | SUN: 24 hours,,,2021-06-21,,ELEC,Public,96150,,,E,THPRD - HMT Recreation Complex,888-998-2546,2021-06-21T22:55:12Z,,GPS,45.520532,-122.839118,Beaverton,,,OR,15707 SW Walker Road,97006,US,,,,,,,,,,,['J1772'],,,1.0,Blink Network,http://www.blinkcharging.com/,,Level 2: $0.49 per kWh,,,,,,,,,,,,,,,,Public,,"{'station': ['60861'], 'posts': ['477359']}",
215,public,MON: 24 hours | TUE: 24 hours | WED: 24 hours | THU: 24 hours | FRI: 24 hours | SAT: 24 hours | SUN: 24 hours,,,2021-06-21,,ELEC,Public,96198,,,E,Providence - Medford Medical Center,888-998-2546,2021-06-21T22:55:12Z,,GPS,42.339375,-122.863707,Medford,,,OR,1111 Crater Lake Avenue,97504,US,,,,,,,,,,,['J1772'],,,2.0,Blink Network,http://www.blinkcharging.com/,,Level 2: $0.49 per kWh,,,,,,,,,,,,,,,,Public,,"{'station': ['61281'], 'posts': ['477569', '498663']}",
216,public,MON: 24 hours | TUE: 24 hours | WED: 24 hours | THU: 24 hours | FRI: 24 hours | SAT: 24 hours | SUN: 24 hours,,,2021-06-21,,ELEC,Public,96209,,,E,Vernier Software & Technology,888-998-2546,2021-06-21T22:55:12Z,,GPS,45.493455,-122.819869,Beaverton,,,OR,13979 SW Millikan Way,97005,US,,,,,,,,,,,['J1772'],,,2.0,Blink Network,http://www.blinkcharging.com/,,Level 2: $0.49 per kWh,,,,,,,,,,,,,,,,Public,,"{'station': ['143217'], 'posts': ['13228', '51722']}",
217,public,MON: 24 hours | TUE: 24 hours | WED: 24 hours | THU: 24 hours | FRI: 24 hours | SAT: 24 hours | SUN: 24 hours,,,2021-06-21,,ELEC,Public,96295,,,E,City of Falls City,888-998-2546,2021-06-21T22:55:12Z,,GPS,44.865414,-123.434127,Falls City,,,OR,299 Mill St.,97344,US,,,,,,,,,,,['J1772'],,,2.0,Blink Network,http://www.blinkcharging.com/,,Level 2: $0.03 per 30 seconds,,,,,,,,,,,,,,,,Public,,"{'station': ['78615'], 'posts': ['15535', '52034']}",
218,public,MON: 24 hours | TUE: 24 hours | WED: 24 hours | THU: 24 hours | FRI: 24 hours | SAT: 24 hours | SUN: 24 hours,,,2021-06-21,,ELEC,Public,96302,,,E,FRED MEYER - #090 East Salem,888-998-2546,2021-06-21T22:55:12Z,,GPS,44.949501,-122.987298,Salem,,,OR,3740 Market  St NE,97301,US,,,,,,,,,,,"['CHADEMO', 'J1772']",2.0,,1.0,Blink Network,http://www.blinkcharging.com/,,Level 2: $0.59 per kWh,,,,,,,,,,,,,,,,Public,,"{'station': ['291737'], 'posts': ['40090', '40688']}",
219,private,MON: 24 hours | TUE: 24 hours | WED: 24 hours | THU: 24 hours | FRI: 24 hours | SAT: 24 hours | SUN: 24 hours,,,2021-06-21,,ELEC,Private,96307,,,E,OSU - Reser Stadium Parking Lot,888-998-2546,2021-06-21T22:55:12Z,,GPS,44.5590277,-123.2795026,Corvallis,"Turn @ Reser Stadium parking at S 
entrance just W of 26th St.  Go N to 
1st entry, take a R immediately. EVSEs 
on R in SW corner of SE quadrant of 
parking lot
",,OR,875 SW 26th Street,97333,US,,,,,,,,,,,['J1772'],,,6.0,Blink Network,http://www.blinkcharging.com/,,Level 2: $0.49 per kWh,,,,,,,,,,,,,,,,Privé,,"{'station': ['62472'], 'posts': ['502468', '502469', '502491', '502505', '502622', '502637']}",
220,public,MON: 24 hours | TUE: 24 hours | WED: 24 hours | THU: 24 hours | FRI: 24 hours | SAT: 24 hours | SUN: 24 hours,,,2021-06-21,,ELEC,Public,96386,,,E,Portland Expo Center,888-998-2546,2021-06-21T22:55:12Z,,GPS,45.604613,-122.686868,Portland,,,OR,2060 North Marine Dr.,97217,US,,,,,,,,,,,['J1772'],,,3.0,Blink Network,http://www.blinkcharging.com/,,Level 2: $0.49 per kWh,,,,,,,,,,,,,,,,Public,,"{'station': ['63109'], 'posts': ['13313', '13314', '17783']}",
221,public,MON: 24 hours | TUE: 24 hours | WED: 24 hours | THU: 24 hours | FRI: 24 hours | SAT: 24 hours | SUN: 24 hours,,,2021-06-21,,ELEC,Public,96393,,,E,City of Carlton - City Hall,888-998-2546,2021-06-21T22:55:12Z,,GPS,45.29437,-123.175959,Carlton,,,OR,191 East Main Street,97111,US,,,,,,,,,,,['J1772'],,,2.0,Blink Network,http://www.blinkcharging.com/,,Level 2: $0.49 per kWh,,,,,,,,,,,,,,,,Public,,"{'station': ['46753'], 'posts': ['37525', '39824']}",
222,public,MON: 24 hours | TUE: 24 hours | WED: 24 hours | THU: 24 hours | FRI: 24 hours | SAT: 24 hours | SUN: 24 hours,,,2021-06-21,,ELEC,Public,96408,,,E,FRED MEYER - #375 Tigard,888-998-2546,2021-06-21T22:55:12Z,,GPS,45.441373,-122.751499,Tigard,"Located on the east side of the 
building between store entrances
",,OR,11565 SW Pacific Highway,97223,US,,,,,,,,,,,"['CHADEMO', 'J1772']",2.0,,1.0,Blink Network,http://www.blinkcharging.com/,,Level 2: $0.49 per kWh,,,,,,,,,,,,,,,,Public,,"{'station': ['96007'], 'posts': ['356872', '75483']}",
223,public,MON: 24 hours | TUE: 24 hours | WED: 24 hours | THU: 24 hours | FRI: 24 hours | SAT: 24 hours | SUN: 24 hours,,,2021-06-21,,ELEC,Public,96409,,,E,FRED MEYER - Corporate Office - Portland OR,888-998-2546,2021-06-21T22:55:12Z,,GPS,45.495842,-122.641314,Portland,,,OR,3800 SE 22nd Ave,97202,US,,,,,,,,,,,['J1772'],,,3.0,Blink Network,http://www.blinkcharging.com/,,Level 2: $0.49 per kWh,,,,,,,,,,,,,,,,Public,,"{'station': ['96006'], 'posts': ['36163', '45152', '48949']}",
224,public,MON: 24 hours | TUE: 24 hours | WED: 24 hours | THU: 24 hours | FRI: 24 hours | SAT: 24 hours | SUN: 24 hours,,,2021-06-21,,ELEC,Public,96416,,,E,FRED MEYER - #516 Wilsonville,888-998-2546,2021-06-21T22:55:12Z,,GPS,45.301015,-122.771683,Wilsonville,,,OR,30300 SW Boones Ferry Rd,97070,US,,,,,,,,,,,['J1772'],,,2.0,Blink Network,http://www.blinkcharging.com/,,Level 2: $0.49 per kWh,,,,,,,,,,,,,,,,Public,,"{'station': ['96022'], 'posts': ['13371', '16304']}",
225,public,MON: 24 hours | TUE: 24 hours | WED: 24 hours | THU: 24 hours | FRI: 24 hours | SAT: 24 hours | SUN: 24 hours,,,2021-06-21,,ELEC,Public,96417,,,E,FRED MEYER - #070 Corvallis,888-998-2546,2021-06-21T22:55:12Z,,GPS,44.575237,-123.274304,Corvallis,,,OR,777 NW Kings Blvd,97330,US,,,,,,,,,,,['J1772'],,,2.0,Blink Network,http://www.blinkcharging.com/,,Level 2: $0.49 per kWh,,,,,,,,,,,,,,,,Public,,"{'station': ['96024'], 'posts': ['37523', '38854']}",
226,public,MON: 24 hours | TUE: 24 hours | WED: 24 hours | THU: 24 hours | FRI: 24 hours | SAT: 24 hours | SUN: 24 hours,,,2021-06-21,,ELEC,Public,96448,,,E,Pacific Parkway Center - Building A,888-998-2546,2021-06-21T22:55:12Z,,GPS,45.426932,-122.746212,Portland,,,OR,6600 SW Hampton Street,97224,US,,,,,,,,,,,['J1772'],,,1.0,Blink Network,http://www.blinkcharging.com/,,Level 2: $0.49 per kWh,,,,,,,,,,,,,,,,Public,,"{'station': ['227337'], 'posts': ['52546']}",
227,public,MON: 24 hours | TUE: 24 hours | WED: 24 hours | THU: 24 hours | FRI: 24 hours | SAT: 24 hours | SUN: 24 hours,,,2021-06-21,,ELEC,Public,96490,,,E,OSU - 15th & Jefferson Way Lot,888-998-2546,2021-06-21T22:55:12Z,,GPS,44.564954,-123.272122,Corvallis,,,OR,1220 SW Jefferson Way,97331,US,,,,,,,,,,,['J1772'],,,2.0,Blink Network,http://www.blinkcharging.com/,,Level 2: $0.49 per kWh,,,,,,,,,,,,,,,,Public,,"{'station': ['64005'], 'posts': ['22592', '44654']}",
228,public,MON: 24 hours | TUE: 24 hours | WED: 24 hours | THU: 24 hours | FRI: 24 hours | SAT: 24 hours | SUN: 24 hours,,,2021-06-21,,ELEC,Public,96491,,,E,Metro - MRC Building,888-998-2546,2021-06-21T22:55:12Z,,GPS,45.527963,-122.659722,Portland,,,OR,600 NE Grand Avenue,97232,US,,,,,,,,,,,['J1772'],,,2.0,Blink Network,http://www.blinkcharging.com/,,Level 2: $0.49 per kWh,,,,,,,,,,,,,,,,Public,,"{'station': ['31238'], 'posts': ['52209', '73951']}",
229,public,MON: 24 hours | TUE: 24 hours | WED: 24 hours | THU: 24 hours | FRI: 24 hours | SAT: 24 hours | SUN: 24 hours,,,2021-06-21,,ELEC,Public,96512,,,E,"Wendy's - Eugene, OR",888-998-2546,2021-06-21T22:55:12Z,,GPS,44.0481599999,-123.13031,Eugene,,,OR,2401 West 11th,97402,US,,,,,,,,,,,['J1772'],,,1.0,Blink Network,http://www.blinkcharging.com/,,Level 2: $0.49 per kWh,,,,,,,,,,,,,,,,Public,,"{'station': ['293573'], 'posts': ['36170']}",
230,public,MON: 24 hours | TUE: 24 hours | WED: 24 hours | THU: 24 hours | FRI: 24 hours | SAT: 24 hours | SUN: 24 hours,,,2021-06-21,,ELEC,Public,96542,,,E,Danielson's Hilltop Mall,888-998-2546,2021-06-21T22:55:12Z,,GPS,45.335211,-122.593116,Oregon City,,,OR,1500 Molalla Ave,97045,US,,,,,,,,,,,['J1772'],,,2.0,Blink Network,http://www.blinkcharging.com/,,Level 2: $0.49 per kWh,,,,,,,,,,,,,,,,Public,,"{'station': ['80810'], 'posts': ['502625', '502636']}",
231,public,MON: 24 hours | TUE: 24 hours | WED: 24 hours | THU: 24 hours | FRI: 24 hours | SAT: 24 hours | SUN: 24 hours,,,2021-06-21,,ELEC,Public,96564,,,E,Smart Park - 4th & Yamhill,888-998-2546,2021-06-21T22:55:12Z,,GPS,45.517312,-122.676815,Portland,"Enter on 4th Ave between Taylor and 
Yamhill Located on Level 8.
",,OR,330 SW Yamhill Street,97204,US,,,,,,,,,,,['J1772'],,,3.0,Blink Network,http://www.blinkcharging.com/,,Level 2: $0.49 per kWh,,,,,,,,,,,,,,,,Public,,"{'station': ['81054'], 'posts': ['477404', '477446', '477467']}",
232,public,MON: 24 hours | TUE: 24 hours | WED: 24 hours | THU: 24 hours | FRI: 24 hours | SAT: 24 hours | SUN: 24 hours,,,2021-06-21,,ELEC,Public,96565,,,E,Smart Park - SW 10th & Yamhill,888-998-2546,2021-06-21T22:55:12Z,,GPS,45.519651,-122.682137,Portland,"EVSEs located on 2nd floor of parking 
garage.  Parking garage entrance 
located on SW 10th Ave.
",,OR,730 SW 10th Avenue,97205,US,,,,,,,,,,,['J1772'],,,7.0,Blink Network,http://www.blinkcharging.com/,,Level 2: $0.49 per kWh,,,,,,,,,,,,,,,,Public,,"{'station': ['81056'], 'posts': ['477308', '477400', '477630', '477664', '477680', '477682', '477858']}",
233,public,MON: 24 hours | TUE: 24 hours | WED: 24 hours | THU: 24 hours | FRI: 24 hours | SAT: 24 hours | SUN: 24 hours,,,2021-06-21,,ELEC,Public,96639,,,E,OSU Student Experience Center,888-998-2546,2021-06-21T22:55:12Z,,GPS,44.564674,-123.28033,Corvallis,,,OR,2251 SW Jefferson Way,97330,US,,,,,,,,,,,['J1772'],,,1.0,Blink Network,http://www.blinkcharging.com/,,Level 2: $0.49 per kWh,,,,,,,,,,,,,,,,Public,,"{'station': ['196336'], 'posts': ['72201']}",
234,public,MON: 24 hours | TUE: 24 hours | WED: 24 hours | THU: 24 hours | FRI: 24 hours | SAT: 24 hours | SUN: 24 hours,,,2021-06-21,,ELEC,Public,96671,,,E,Beaverton - City Library,888-998-2546,2021-06-21T22:55:12Z,,GPS,45.4845,-122.8047,Beaverton,,,OR,12375 SW Fifth Street,97005,US,,,,,,,,,,,['J1772'],,,3.0,Blink Network,http://www.blinkcharging.com/,,Level 2: $0.49 per kWh,,,,,,,,,,,,,,,,Public,,"{'station': ['16280'], 'posts': ['421059', '502365', '517056']}",
235,public,MON: 24 hours | TUE: 24 hours | WED: 24 hours | THU: 24 hours | FRI: 24 hours | SAT: 24 hours | SUN: 24 hours,,,2021-06-21,,ELEC,Public,96673,,,E,Walters Cultural Art Center,888-998-2546,2021-06-21T22:55:12Z,,GPS,45.522961,-122.982309,Hillsboro,,,OR,527 E Main St,97123,US,,,,,,,,,,,['J1772'],,,2.0,Blink Network,http://www.blinkcharging.com/,,Level 2: $0.49 per kWh,,,,,,,,,,,,,,,,Public,,"{'station': ['16289'], 'posts': ['502569', '502654']}",
236,public,24 hours daily,,,2021-06-22,,ELEC,Public,96950,,,E,EMBASSY CENTER NEW STATION,888-758-4389,2021-06-22T00:42:47Z,,GPS,45.454592,-122.781679,Tigard,,,OR,9020 SW Washington Square Rd,97223,US,,,,,,,,,,,['J1772'],,,2.0,ChargePoint Network,http://www.chargepoint.com/,,,,,,,,,,,,,,,,,,Public,,"{'station': ['USCPIL415361'], 'posts': ['561801', '561811']}",
237,public,MON: 24 hours | TUE: 24 hours | WED: 24 hours | THU: 24 hours | FRI: 24 hours | SAT: 24 hours | SUN: 24 hours,,,2021-06-21,,ELEC,Public,97028,,,E,South Clackamas Transportation District,888-998-2546,2021-06-21T22:55:12Z,,GPS,45.145345,-122.566024,Molalla,,,OR,807 East Main Street,97038,US,,,,,,,,,,,['J1772'],,,1.0,Blink Network,http://www.blinkcharging.com/,,Level 2: $0.49 per kWh,,,,,,,,,,,,,,,,Public,,"{'station': ['368618'], 'posts': ['529753']}",
238,public,24 hours daily,,,2021-06-22,,ELEC,Public,97036,,,E,CHARGE@RTH STATION 01,888-758-4389,2021-06-22T00:42:47Z,,GPS,45.520359,-122.537051,Portland,,,OR,300 SE 122nd Ave,97233,US,,,,,,,,,,,['J1772'],,,2.0,ChargePoint Network,http://www.chargepoint.com/,,,,,,,,,,,,,,,,,,Public,,"{'station': ['USCPIL372911'], 'posts': ['505501', '505511']}",
239,public,MON: 24 hours | TUE: 24 hours | WED: 24 hours | THU: 24 hours | FRI: 24 hours | SAT: 24 hours | SUN: 24 hours,,,2021-06-21,,ELEC,Public,98384,,,E,FRED MEYER - #220 Newberg,888-998-2546,2021-06-21T22:55:12Z,,GPS,45.305972,-122.944922,Newberg,"EVSE's are located at the northwest 
corner of the store
",,OR,3300 Portland Rd,97132,US,,,,,,,,,,,['J1772'],,,1.0,Blink Network,http://www.blinkcharging.com/,,Level 2: $0.49 per kWh,,,,,,,,,,,,,,,,Public,,"{'station': ['50757'], 'posts': ['12895']}",
240,public,MON: 24 hours | TUE: 24 hours | WED: 24 hours | THU: 24 hours | FRI: 24 hours | SAT: 24 hours | SUN: 24 hours,,,2021-06-21,,ELEC,Public,98387,,,E,Fred Meyer - #660 Wood Village,888-998-2546,2021-06-21T22:55:12Z,,GPS,45.530047,-122.427359,Wood Village,,,OR,22855 NE Park Lane,97060,US,,,,,,,,,,,['J1772'],,,4.0,Blink Network,http://www.blinkcharging.com/,,Level 2: $0.49 per kWh,,,,,,,,,,,,,,,,Public,,"{'station': ['381287'], 'posts': ['25312', '25739', '26095', '26179']}",
241,private,For renter use only,,,2021-06-07,,ELEC,Private,98411,2018-04-23,P,E,Crescent Vue,,2021-06-07T17:37:37Z,HOTEL,200-9,45.449914,-123.961337,Tillamook,,,OR,132 Crescent St,97134,US,,,,,,,,,,,['J1772'],,,1.0,Non-Networked,,,,,,,,,,,,,,,,,,,Privé,,,
242,public,"10am-6pm M-F, 10am-4pm Sat-Sun; key required",KEY_ALWAYS,A Cash Checks D Debit M V,2020-07-13,,ELEC,Public - Card key at all times,98546,2018-05-01,P,E,Green Acres Market,541-678-7581,2021-04-20T17:40:59Z,GROCERY,200-9,44.204363,-121.227364,Redmond,,,OR,7777 S Highway 97,97756,US,,,,,,,,,,,['J1772'],,,1.0,Non-Networked,,,Free,,,,,,,,,,,,,,,,Public - Carte-clé en tout temps,,,
243,public,24 hours daily,,,2021-06-22,,ELEC,Public,98753,,,E,2ND FL CAR CHAR 2ND FLOOR CHARG,888-758-4389,2021-06-22T00:42:47Z,,GPS,45.532799,-122.695242,Portland,,,OR,2112 NW Quimby St,97210,US,,,,,,,,,,,['J1772'],,,2.0,ChargePoint Network,http://www.chargepoint.com/,,,,,,,,,,,,,,,,,,Public,,"{'station': ['USCPIL443691'], 'posts': ['600031', '600041']}",
244,public,24 hours daily,,,2021-06-22,,ELEC,Public,99177,,,E,2WTC P1,855-900-7584,2021-06-22T01:27:16Z,,200-9,45.516061,-122.673899,Portland,,,OR,121 SW Salmon St,97204,US,,,,,,,,,,,['J1772'],,,8.0,Greenlots,http://greenlots.com/,,,,,,,,,,,,,,,,,,Public,,"{'station': ['1124'], 'posts': ['52162*1', '52162*2', '52293', '52299', '52300*1', '52300*2', '52302*1', '52302*2']}",
245,public,24 hours daily,,,2021-06-22,,ELEC,Public,99776,,,E,EV4 Oregon Office,855-900-7584,2021-06-22T01:27:16Z,,GPS,45.487226,-122.638413,Portland,,,OR,2727 SE Raymond Street,97202,US,,,,,,,,,,,['J1772'],,,1.0,Greenlots,http://greenlots.com/,,,,,,,,,,,,,,,,,,Public,,"{'station': ['520'], 'posts': ['112134U']}",
